[{"id": "u-1o6fSvTnqLBtqFuLFqNw", "alias": "budapest-cafe-and-restaurant-new-york", "name": "Budapest Cafe and Restaurant", "image_url": "https://s3-media3.fl.yelpcdn.com/bphoto/trQg7ZazWcU4Te7yPIecLA/o.jpg", "is_closed": false, "url": "https://www.yelp.com/biz/budapest-cafe-and-restaurant-new-york?adjust_creative=5eN9XJbvGrZ_EWoOYuLppw&utm_campaign=yelp_api_v3&utm_medium=api_v3_business_search&utm_source=5eN9XJbvGrZ_EWoOYuLppw", "review_count": 249, "categories": [{"alias": "bakeries", "title": "Bakeries"}, {"alias": "hungarian", "title": "Hungarian"}, {"alias": "cafes", "title": "Cafes"}], "rating": 3.5, "coordinates": {"latitude": 40.77715, "longitude": -73.95264}, "transactions": [], "price": "$$", "location": {"address1": "1631 2nd Ave", "address2": null, "address3": "", "city": "New York", "zip_code": "10028", "country": "US", "state": "NY", "display_address": ["1631 2nd Ave", "New York, NY 10028"]}, "phone": "+12123271105", "display_phone": "(212) 327-1105", "distance": 2879.981419893855}, {"id": "CPtMBPklRS2z36xiD9sA2A", "alias": "27-morton-new-york", "name": "27 Morton", "image_url": "https://s3-media1.fl.yelpcdn.com/bphoto/QiK2zwpbOHakh_ZidD9VRw/o.jpg", "is_closed": false, "url": "https://www.yelp.com/biz/27-morton-new-york?adjust_creative=5eN9XJbvGrZ_EWoOYuLppw&utm_campaign=yelp_api_v3&utm_medium=api_v3_business_search&utm_source=5eN9XJbvGrZ_EWoOYuLppw", "review_count": 62, "categories": [{"alias": "hungarian", "title": "Hungarian"}, {"alias": "german", "title": "German"}, {"alias": "georgian", "title": "Georgian"}], "rating": 4.5, "coordinates": {"latitude": 40.73111, "longitude": -74.00452}, "transactions": [], "price": "$$", "location": {"address1": "27 1/2 Morton St", "address2": "", "address3": null, "city": "New York", "zip_code": "10014", "country": "US", "state": "NY", "display_address": ["27 1/2 Morton St", "New York, NY 10014"]}, "phone": "+12129294339", "display_phone": "(212) 929-4339", "distance": 3900.621929775637}, {"id": "RUIikQzDhVPLNKObR3q6nA", "alias": "green-pear-heights-jersey-city-4", "name": "Green Pear Heights", "image_url": "https://s3-media4.fl.yelpcdn.com/bphoto/ksp38kNbFXKqw6NpYexaew/o.jpg", "is_closed": false, "url": "https://www.yelp.com/biz/green-pear-heights-jersey-city-4?adjust_creative=5eN9XJbvGrZ_EWoOYuLppw&utm_campaign=yelp_api_v3&utm_medium=api_v3_business_search&utm_source=5eN9XJbvGrZ_EWoOYuLppw", "review_count": 23, "categories": [{"alias": "hungarian", "title": "Hungarian"}, {"alias": "musicians", "title": "Musicians"}, {"alias": "opera", "title": "Opera & Ballet"}], "rating": 4.5, "coordinates": {"latitude": 40.74214, "longitude": -74.04891}, "transactions": ["pickup", "delivery"], "location": {"address1": "93 Franklin St", "address2": null, "address3": "", "city": "Jersey City", "zip_code": "07307", "country": "US", "state": "NJ", "display_address": ["93 Franklin St", "Jersey City, NJ 07307"]}, "phone": "+12019687151", "display_phone": "(201) 968-7151", "distance": 6261.675857613943}, {"id": "zo4mcEfVKaktdj_gnSFhGQ", "alias": "cafe-katja-new-york", "name": "Cafe Katja", "image_url": "https://s3-media1.fl.yelpcdn.com/bphoto/aOQeKl7wYPmmSthza1Jj7g/o.jpg", "is_closed": false, "url": "https://www.yelp.com/biz/cafe-katja-new-york?adjust_creative=5eN9XJbvGrZ_EWoOYuLppw&utm_campaign=yelp_api_v3&utm_medium=api_v3_business_search&utm_source=5eN9XJbvGrZ_EWoOYuLppw", "review_count": 783, "categories": [{"alias": "german", "title": "German"}, {"alias": "bars", "title": "Bars"}, {"alias": "austrian", "title": "Austrian"}], "rating": 4.5, "coordinates": {"latitude": 40.7177673, "longitude": -73.990589}, "transactions": ["pickup", "delivery"], "price": "$$", "location": {"address1": "79 Orchard St", "address2": "", "address3": "", "city": "New York", "zip_code": "10002", "country": "US", "state": "NY", "display_address": ["79 Orchard St", "New York, NY 10002"]}, "phone": "+12122199545", "display_phone": "(212) 219-9545", "distance": 4833.423412934989}, {"id": "ozyAYd8hardDsx2_l57khA", "alias": "andres-hungarian-forest-hills", "name": "Andre's Hungarian", "image_url": "https://s3-media2.fl.yelpcdn.com/bphoto/FHq0FzmzNWC30HvBk8wJvQ/o.jpg", "is_closed": false, "url": "https://www.yelp.com/biz/andres-hungarian-forest-hills?adjust_creative=5eN9XJbvGrZ_EWoOYuLppw&utm_campaign=yelp_api_v3&utm_medium=api_v3_business_search&utm_source=5eN9XJbvGrZ_EWoOYuLppw", "review_count": 82, "categories": [{"alias": "bakeries", "title": "Bakeries"}, {"alias": "hungarian", "title": "Hungarian"}], "rating": 3.5, "coordinates": {"latitude": 40.7265535, "longitude": -73.8535516}, "transactions": [], "price": "$$", "location": {"address1": "100-28 Queens Blvd", "address2": "", "address3": "", "city": "Forest Hills", "zip_code": "11375", "country": "US", "state": "NY", "display_address": ["100-28 Queens Blvd", "Forest Hills, NY 11375"]}, "phone": "+17188300266", "display_phone": "(718) 830-0266", "distance": 11209.509099820267}, {"id": "CVxz9B5ncpMwVK1bk_c1YA", "alias": "veselka-new-york", "name": "Veselka", "image_url": "https://s3-media2.fl.yelpcdn.com/bphoto/f1RdxZKOM07-lytOMAHuSA/o.jpg", "is_closed": false, "url": "https://www.yelp.com/biz/veselka-new-york?adjust_creative=5eN9XJbvGrZ_EWoOYuLppw&utm_campaign=yelp_api_v3&utm_medium=api_v3_business_search&utm_source=5eN9XJbvGrZ_EWoOYuLppw", "review_count": 2559, "categories": [{"alias": "diners", "title": "Diners"}, {"alias": "ukrainian", "title": "Ukrainian"}], "rating": 4.0, "coordinates": {"latitude": 40.7289505004883, "longitude": -73.9869689941406}, "transactions": ["pickup", "delivery"], "price": "$$", "location": {"address1": "144 2nd Ave", "address2": "", "address3": "", "city": "New York", "zip_code": "10003", "country": "US", "state": "NY", "display_address": ["144 2nd Ave", "New York, NY 10003"]}, "phone": "+12122289682", "display_phone": "(212) 228-9682", "distance": 3551.245540961862}, {"id": "PJeuLlvja4ZKv_tHq_pE1A", "alias": "heidelberg-restaurant-new-york", "name": "Heidelberg Restaurant", "image_url": "https://s3-media3.fl.yelpcdn.com/bphoto/i1RFleluK55pvi0bWxlONw/o.jpg", "is_closed": false, "url": "https://www.yelp.com/biz/heidelberg-restaurant-new-york?adjust_creative=5eN9XJbvGrZ_EWoOYuLppw&utm_campaign=yelp_api_v3&utm_medium=api_v3_business_search&utm_source=5eN9XJbvGrZ_EWoOYuLppw", "review_count": 684, "categories": [{"alias": "german", "title": "German"}, {"alias": "bars", "title": "Bars"}], "rating": 4.0, "coordinates": {"latitude": 40.77742, "longitude": -73.95172}, "transactions": ["pickup", "delivery"], "price": "$$", "location": {"address1": "1648 2nd Ave", "address2": "", "address3": "", "city": "New York", "zip_code": "10028", "country": "US", "state": "NY", "display_address": ["1648 2nd Ave", "New York, NY 10028"]}, "phone": "+12126282332", "display_phone": "(212) 628-2332", "distance": 2957.481250956769}, {"id": "_NS1hEZ0LPwaTG4R6jxgnw", "alias": "cafe-sabarsky-new-york-4", "name": "Cafe Sabarsky", "image_url": "https://s3-media4.fl.yelpcdn.com/bphoto/rQ9HePdDGPLAVhRA34lu_Q/o.jpg", "is_closed": false, "url": "https://www.yelp.com/biz/cafe-sabarsky-new-york-4?adjust_creative=5eN9XJbvGrZ_EWoOYuLppw&utm_campaign=yelp_api_v3&utm_medium=api_v3_business_search&utm_source=5eN9XJbvGrZ_EWoOYuLppw", "review_count": 495, "categories": [{"alias": "german", "title": "German"}, {"alias": "austrian", "title": "Austrian"}, {"alias": "coffee", "title": "Coffee & Tea"}], "rating": 4.0, "coordinates": {"latitude": 40.7813294606411, "longitude": -73.9603686332703}, "transactions": [], "price": "$$", "location": {"address1": "1048 5th Ave", "address2": "", "address3": "", "city": "New York", "zip_code": "10028", "country": "US", "state": "NY", "display_address": ["1048 5th Ave", "New York, NY 10028"]}, "phone": "+12122880665", "display_phone": "(212) 288-0665", "distance": 2800.6593465282435}, {"id": "BxNs9d8rEW3Tls-nVdmIgA", "alias": "reichenbach-hall-new-york", "name": "Reichenbach Hall", "image_url": "https://s3-media4.fl.yelpcdn.com/bphoto/--zYyz2BO1gUg1fu_8X8rA/o.jpg", "is_closed": false, "url": "https://www.yelp.com/biz/reichenbach-hall-new-york?adjust_creative=5eN9XJbvGrZ_EWoOYuLppw&utm_campaign=yelp_api_v3&utm_medium=api_v3_business_search&utm_source=5eN9XJbvGrZ_EWoOYuLppw", "review_count": 754, "categories": [{"alias": "bars", "title": "Bars"}, {"alias": "german", "title": "German"}, {"alias": "pretzels", "title": "Pretzels"}], "rating": 4.0, "coordinates": {"latitude": 40.7508, "longitude": -73.98401}, "transactions": [], "price": "$$", "location": {"address1": "5 W 37th St", "address2": "", "address3": "", "city": "New York", "zip_code": "10018", "country": "US", "state": "NY", "display_address": ["5 W 37th St", "New York, NY 10018"]}, "phone": "+12123027744", "display_phone": "(212) 302-7744", "distance": 1136.234318581736}, {"id": "DqZwDEYiggj5LbI86HFzIw", "alias": "ver\u014dnika-nyc-new-york-2", "name": "Ver\u014dnika NYC", "image_url": "https://s3-media1.fl.yelpcdn.com/bphoto/Pv4UrbBN5KWxmOn0eL1pFQ/o.jpg", "is_closed": false, "url": "https://www.yelp.com/biz/ver%C5%8Dnika-nyc-new-york-2?adjust_creative=5eN9XJbvGrZ_EWoOYuLppw&utm_campaign=yelp_api_v3&utm_medium=api_v3_business_search&utm_source=5eN9XJbvGrZ_EWoOYuLppw", "review_count": 31, "categories": [{"alias": "modern_european", "title": "Modern European"}], "rating": 4.0, "coordinates": {"latitude": 40.739248, "longitude": -73.986714}, "transactions": [], "location": {"address1": "281 Park Ave S", "address2": "", "address3": null, "city": "New York", "zip_code": "10010", "country": "US", "state": "NY", "display_address": ["281 Park Ave S", "New York, NY 10010"]}, "phone": "+16469936993", "display_phone": "(646) 993-6993", "distance": 2434.9913017615977}, {"id": "NirY5TkWZBNuuAgbjdG0AA", "alias": "bohemian-spirit-restaurant-new-york", "name": "Bohemian Spirit Restaurant", "image_url": "https://s3-media4.fl.yelpcdn.com/bphoto/rgXO8MNYTvqVbuM1WJBpqQ/o.jpg", "is_closed": false, "url": "https://www.yelp.com/biz/bohemian-spirit-restaurant-new-york?adjust_creative=5eN9XJbvGrZ_EWoOYuLppw&utm_campaign=yelp_api_v3&utm_medium=api_v3_business_search&utm_source=5eN9XJbvGrZ_EWoOYuLppw", "review_count": 85, "categories": [{"alias": "czech", "title": "Czech"}, {"alias": "bars", "title": "Bars"}], "rating": 4.0, "coordinates": {"latitude": 40.76898, "longitude": -73.95643}, "transactions": [], "price": "$$", "location": {"address1": "321 E 73rd St", "address2": "", "address3": null, "city": "New York", "zip_code": "10021", "country": "US", "state": "NY", "display_address": ["321 E 73rd St", "New York, NY 10021"]}, "phone": "+12128611038", "display_phone": "(212) 861-1038", "distance": 2097.6151978309836}, {"id": "QRbD99HVMffeto7_Hq67CQ", "alias": "korzo-brooklyn", "name": "Korzo", "image_url": "https://s3-media4.fl.yelpcdn.com/bphoto/vWqpYCFk7XUNfunv5MHjXg/o.jpg", "is_closed": false, "url": "https://www.yelp.com/biz/korzo-brooklyn?adjust_creative=5eN9XJbvGrZ_EWoOYuLppw&utm_campaign=yelp_api_v3&utm_medium=api_v3_business_search&utm_source=5eN9XJbvGrZ_EWoOYuLppw", "review_count": 452, "categories": [{"alias": "modern_european", "title": "Modern European"}, {"alias": "burgers", "title": "Burgers"}], "rating": 4.0, "coordinates": {"latitude": 40.66199, "longitude": -73.99238}, "transactions": ["pickup"], "price": "$$", "location": {"address1": "667 5th Ave", "address2": "", "address3": "", "city": "Brooklyn", "zip_code": "11215", "country": "US", "state": "NY", "display_address": ["667 5th Ave", "Brooklyn, NY 11215"]}, "phone": "+17184991199", "display_phone": "(718) 499-1199", "distance": 10981.054431378341}, {"id": "tV2IY8q92bOEwVC4McgPjw", "alias": "wallse-new-york-8", "name": "Wallse", "image_url": "https://s3-media2.fl.yelpcdn.com/bphoto/TYfUEc0XZc3VJc8fyBUt5A/o.jpg", "is_closed": false, "url": "https://www.yelp.com/biz/wallse-new-york-8?adjust_creative=5eN9XJbvGrZ_EWoOYuLppw&utm_campaign=yelp_api_v3&utm_medium=api_v3_business_search&utm_source=5eN9XJbvGrZ_EWoOYuLppw", "review_count": 273, "categories": [{"alias": "austrian", "title": "Austrian"}, {"alias": "modern_european", "title": "Modern European"}, {"alias": "breakfast_brunch", "title": "Breakfast & Brunch"}], "rating": 4.0, "coordinates": {"latitude": 40.7354552762594, "longitude": -74.0082208400924}, "transactions": [], "price": "$$$", "location": {"address1": "344 W 11th St", "address2": "", "address3": "", "city": "New York", "zip_code": "10014", "country": "US", "state": "NY", "display_address": ["344 W 11th St", "New York, NY 10014"]}, "phone": "+12123522300", "display_phone": "(212) 352-2300", "distance": 3721.30031086123}, {"id": "_lk_uxURy7g-R7TbrG6hww", "alias": "ukrainian-east-village-new-york", "name": "Ukrainian East Village", "image_url": "https://s3-media1.fl.yelpcdn.com/bphoto/Qu_KTMWye9kJozAriVMkjw/o.jpg", "is_closed": false, "url": "https://www.yelp.com/biz/ukrainian-east-village-new-york?adjust_creative=5eN9XJbvGrZ_EWoOYuLppw&utm_campaign=yelp_api_v3&utm_medium=api_v3_business_search&utm_source=5eN9XJbvGrZ_EWoOYuLppw", "review_count": 296, "categories": [{"alias": "ukrainian", "title": "Ukrainian"}], "rating": 4.0, "coordinates": {"latitude": 40.728847, "longitude": -73.987045}, "transactions": [], "price": "$$", "location": {"address1": "140 2nd Ave", "address2": "", "address3": "", "city": "New York", "zip_code": "10003", "country": "US", "state": "NY", "display_address": ["140 2nd Ave", "New York, NY 10003"]}, "phone": "+12126143283", "display_phone": "(212) 614-3283", "distance": 3561.1199954218114}, {"id": "btLgjl8CEgW2wvB0ZI-Aqg", "alias": "mari-vanna-new-york-2", "name": "Mari Vanna", "image_url": "https://s3-media3.fl.yelpcdn.com/bphoto/Fp_3cLy4_9NXgia8MhyMFg/o.jpg", "is_closed": false, "url": "https://www.yelp.com/biz/mari-vanna-new-york-2?adjust_creative=5eN9XJbvGrZ_EWoOYuLppw&utm_campaign=yelp_api_v3&utm_medium=api_v3_business_search&utm_source=5eN9XJbvGrZ_EWoOYuLppw", "review_count": 651, "categories": [{"alias": "russian", "title": "Russian"}], "rating": 4.0, "coordinates": {"latitude": 40.73878, "longitude": -73.98858}, "transactions": ["pickup", "delivery"], "price": "$$$", "location": {"address1": "41 E 20th St", "address2": "", "address3": "", "city": "New York", "zip_code": "10003", "country": "US", "state": "NY", "display_address": ["41 E 20th St", "New York, NY 10003"]}, "phone": "+12127771955", "display_phone": "(212) 777-1955", "distance": 2528.4258011783504}, {"id": "CPtao9WHPnVJGUS0H4Txww", "alias": "taam-tov-new-york", "name": "Taam Tov", "image_url": "https://s3-media2.fl.yelpcdn.com/bphoto/KsZd_HzKg2qbpgY1LcBtpg/o.jpg", "is_closed": false, "url": "https://www.yelp.com/biz/taam-tov-new-york?adjust_creative=5eN9XJbvGrZ_EWoOYuLppw&utm_campaign=yelp_api_v3&utm_medium=api_v3_business_search&utm_source=5eN9XJbvGrZ_EWoOYuLppw", "review_count": 130, "categories": [{"alias": "kosher", "title": "Kosher"}, {"alias": "uzbek", "title": "Uzbek"}], "rating": 3.5, "coordinates": {"latitude": 40.757703, "longitude": -73.980522}, "transactions": ["pickup", "delivery"], "price": "$$", "location": {"address1": "41 W 47th St", "address2": "", "address3": "", "city": "New York", "zip_code": "10036", "country": "US", "state": "NY", "display_address": ["41 W 47th St", "New York, NY 10036"]}, "phone": "+12127688001", "display_phone": "(212) 768-8001", "distance": 327.1209405049848}, {"id": "qbEuBOWUXO2s-C28xJ0tOQ", "alias": "koliba-astoria", "name": "Koliba", "image_url": "https://s3-media1.fl.yelpcdn.com/bphoto/hmqpVugMgEgZcGAHum2W9A/o.jpg", "is_closed": false, "url": "https://www.yelp.com/biz/koliba-astoria?adjust_creative=5eN9XJbvGrZ_EWoOYuLppw&utm_campaign=yelp_api_v3&utm_medium=api_v3_business_search&utm_source=5eN9XJbvGrZ_EWoOYuLppw", "review_count": 109, "categories": [{"alias": "modern_european", "title": "Modern European"}, {"alias": "czech", "title": "Czech"}, {"alias": "slovakian", "title": "Slovakian"}], "rating": 4.0, "coordinates": {"latitude": 40.7743701, "longitude": -73.9126345}, "transactions": [], "price": "$$", "location": {"address1": "3111 23rd Ave", "address2": "", "address3": "", "city": "Astoria", "zip_code": "11105", "country": "US", "state": "NY", "display_address": ["3111 23rd Ave", "Astoria, NY 11105"]}, "phone": "+17186260430", "display_phone": "(718) 626-0430", "distance": 5789.88011093482}, {"id": "a6SzfZ2F-uELmymusQVMBg", "alias": "karczma-brooklyn", "name": "Karczma", "image_url": "https://s3-media3.fl.yelpcdn.com/bphoto/Eq1HKex42BFN61jBgTbb0g/o.jpg", "is_closed": false, "url": "https://www.yelp.com/biz/karczma-brooklyn?adjust_creative=5eN9XJbvGrZ_EWoOYuLppw&utm_campaign=yelp_api_v3&utm_medium=api_v3_business_search&utm_source=5eN9XJbvGrZ_EWoOYuLppw", "review_count": 561, "categories": [{"alias": "polish", "title": "Polish"}], "rating": 4.5, "coordinates": {"latitude": 40.729977, "longitude": -73.955128}, "transactions": ["pickup"], "price": "$$", "location": {"address1": "136 Greenpoint Ave", "address2": "", "address3": "", "city": "Brooklyn", "zip_code": "11222", "country": "US", "state": "NY", "display_address": ["136 Greenpoint Ave", "Brooklyn, NY 11222"]}, "phone": "+17183491744", "display_phone": "(718) 349-1744", "distance": 3896.394992162843}, {"id": "SvNoFlsMTcBzDv9OirfGZw", "alias": "little-poland-new-york", "name": "Little Poland", "image_url": "https://s3-media2.fl.yelpcdn.com/bphoto/-BOCjznTmhemc_ktoZUvEg/o.jpg", "is_closed": false, "url": "https://www.yelp.com/biz/little-poland-new-york?adjust_creative=5eN9XJbvGrZ_EWoOYuLppw&utm_campaign=yelp_api_v3&utm_medium=api_v3_business_search&utm_source=5eN9XJbvGrZ_EWoOYuLppw", "review_count": 308, "categories": [{"alias": "diners", "title": "Diners"}, {"alias": "polish", "title": "Polish"}], "rating": 4.0, "coordinates": {"latitude": 40.73119, "longitude": -73.9855199}, "transactions": ["pickup", "delivery"], "price": "$$", "location": {"address1": "200 2nd Ave", "address2": null, "address3": "", "city": "New York", "zip_code": "10003", "country": "US", "state": "NY", "display_address": ["200 2nd Ave", "New York, NY 10003"]}, "phone": "+12127779728", "display_phone": "(212) 777-9728", "distance": 3282.8911489204197}, {"id": "_iJChYU1yfsvqRv9e5Ic0A", "alias": "krolewskie-jadlo-brooklyn", "name": "Krolewskie Jadlo", "image_url": "https://s3-media2.fl.yelpcdn.com/bphoto/BpM1eAaGzp8B23RlM5BsQw/o.jpg", "is_closed": false, "url": "https://www.yelp.com/biz/krolewskie-jadlo-brooklyn?adjust_creative=5eN9XJbvGrZ_EWoOYuLppw&utm_campaign=yelp_api_v3&utm_medium=api_v3_business_search&utm_source=5eN9XJbvGrZ_EWoOYuLppw", "review_count": 413, "categories": [{"alias": "polish", "title": "Polish"}], "rating": 4.0, "coordinates": {"latitude": 40.72532, "longitude": -73.95153}, "transactions": ["pickup", "delivery"], "price": "$$", "location": {"address1": "694 Manhattan Ave", "address2": null, "address3": "", "city": "Brooklyn", "zip_code": "11222", "country": "US", "state": "NY", "display_address": ["694 Manhattan Ave", "Brooklyn, NY 11222"]}, "phone": "+17183838993", "display_phone": "(718) 383-8993", "distance": 4499.111254951764}, {"id": "EXdA9wd7z-_us4ZdR_GQug", "alias": "cafe-steinhof-brooklyn", "name": "Cafe Steinhof", "image_url": "https://s3-media3.fl.yelpcdn.com/bphoto/Ja21O-LpTIiB_o7TQzpfeQ/o.jpg", "is_closed": false, "url": "https://www.yelp.com/biz/cafe-steinhof-brooklyn?adjust_creative=5eN9XJbvGrZ_EWoOYuLppw&utm_campaign=yelp_api_v3&utm_medium=api_v3_business_search&utm_source=5eN9XJbvGrZ_EWoOYuLppw", "review_count": 390, "categories": [{"alias": "austrian", "title": "Austrian"}], "rating": 4.0, "coordinates": {"latitude": 40.66405, "longitude": -73.98414}, "transactions": ["pickup", "delivery"], "price": "$$", "location": {"address1": "422 7th Ave", "address2": "", "address3": "", "city": "Brooklyn", "zip_code": "11215", "country": "US", "state": "NY", "display_address": ["422 7th Ave", "Brooklyn, NY 11215"]}, "phone": "+17183697776", "display_phone": "(718) 369-7776", "distance": 10703.314482642834}, {"id": "rA1lLU5n84bCWLVBo3daDA", "alias": "pyza-brooklyn", "name": "Pyza", "image_url": "https://s3-media1.fl.yelpcdn.com/bphoto/nC1tBO3Ze06gXykw5ZQPgQ/o.jpg", "is_closed": false, "url": "https://www.yelp.com/biz/pyza-brooklyn?adjust_creative=5eN9XJbvGrZ_EWoOYuLppw&utm_campaign=yelp_api_v3&utm_medium=api_v3_business_search&utm_source=5eN9XJbvGrZ_EWoOYuLppw", "review_count": 89, "categories": [{"alias": "polish", "title": "Polish"}], "rating": 4.5, "coordinates": {"latitude": 40.724237, "longitude": -73.94878}, "transactions": [], "price": "$", "location": {"address1": "118 Nassau Ave", "address2": "", "address3": "", "city": "Brooklyn", "zip_code": "11222", "country": "US", "state": "NY", "display_address": ["118 Nassau Ave", "Brooklyn, NY 11222"]}, "phone": "+17183498829", "display_phone": "(718) 349-8829", "distance": 4717.426253878497}, {"id": "sHRFCUDuvekILW4ZueTXMg", "alias": "polish-and-slavic-center-cafeteria-brooklyn", "name": "Polish & Slavic Center Cafeteria", "image_url": "https://s3-media1.fl.yelpcdn.com/bphoto/y16bhjhaHNOd_5OWMcO_Jg/o.jpg", "is_closed": false, "url": "https://www.yelp.com/biz/polish-and-slavic-center-cafeteria-brooklyn?adjust_creative=5eN9XJbvGrZ_EWoOYuLppw&utm_campaign=yelp_api_v3&utm_medium=api_v3_business_search&utm_source=5eN9XJbvGrZ_EWoOYuLppw", "review_count": 13, "categories": [{"alias": "polish", "title": "Polish"}, {"alias": "nonprofit", "title": "Community Service/Non-Profit"}], "rating": 4.5, "coordinates": {"latitude": 40.731197, "longitude": -73.953589}, "transactions": [], "price": "$$$$", "location": {"address1": "177 Kent St", "address2": "", "address3": "", "city": "Brooklyn", "zip_code": "11222", "country": "US", "state": "NY", "display_address": ["177 Kent St", "Brooklyn, NY 11222"]}, "phone": "+17183491033", "display_phone": "(718) 349-1033", "distance": 3843.286222256178}, {"id": "FXBrt0VpeBRengdd4fBOZw", "alias": "werkstatt-brooklyn-2", "name": "Werkstatt", "image_url": "https://s3-media2.fl.yelpcdn.com/bphoto/YQWncyNpx6m0P4pa6wIn4w/o.jpg", "is_closed": false, "url": "https://www.yelp.com/biz/werkstatt-brooklyn-2?adjust_creative=5eN9XJbvGrZ_EWoOYuLppw&utm_campaign=yelp_api_v3&utm_medium=api_v3_business_search&utm_source=5eN9XJbvGrZ_EWoOYuLppw", "review_count": 232, "categories": [{"alias": "austrian", "title": "Austrian"}, {"alias": "breakfast_brunch", "title": "Breakfast & Brunch"}, {"alias": "cocktailbars", "title": "Cocktail Bars"}], "rating": 4.5, "coordinates": {"latitude": 40.645298, "longitude": -73.970234}, "transactions": ["pickup", "delivery"], "price": "$$", "location": {"address1": "509 Coney Island Ave", "address2": "", "address3": "", "city": "Brooklyn", "zip_code": "11218", "country": "US", "state": "NY", "display_address": ["509 Coney Island Ave", "Brooklyn, NY 11218"]}, "phone": "+17182845800", "display_phone": "(718) 284-5800", "distance": 12797.149283294124}, {"id": "TOaQzGPAIQWQUIXi4CPnbA", "alias": "radegast-hall-and-biergarten-brooklyn", "name": "Radegast Hall and Biergarten", "image_url": "https://s3-media3.fl.yelpcdn.com/bphoto/oRz8RIp-ZwYgCWTAiI5LBw/o.jpg", "is_closed": false, "url": "https://www.yelp.com/biz/radegast-hall-and-biergarten-brooklyn?adjust_creative=5eN9XJbvGrZ_EWoOYuLppw&utm_campaign=yelp_api_v3&utm_medium=api_v3_business_search&utm_source=5eN9XJbvGrZ_EWoOYuLppw", "review_count": 1328, "categories": [{"alias": "pubs", "title": "Pubs"}, {"alias": "german", "title": "German"}, {"alias": "venues", "title": "Venues & Event Spaces"}], "rating": 4.0, "coordinates": {"latitude": 40.716641, "longitude": -73.961498}, "transactions": [], "price": "$$", "location": {"address1": "113 N 3rd St", "address2": "", "address3": "", "city": "Brooklyn", "zip_code": "11249", "country": "US", "state": "NY", "display_address": ["113 N 3rd St", "Brooklyn, NY 11249"]}, "phone": "+17189633973", "display_phone": "(718) 963-3973", "distance": 5052.513777615785}, {"id": "u5pK1oszIUvrnDRLKwifqA", "alias": "pilsener-haus-and-biergarten-hoboken", "name": "Pilsener Haus & Biergarten", "image_url": "https://s3-media2.fl.yelpcdn.com/bphoto/5T0SiDIQ5yhS1K6HB9qBnA/o.jpg", "is_closed": false, "url": "https://www.yelp.com/biz/pilsener-haus-and-biergarten-hoboken?adjust_creative=5eN9XJbvGrZ_EWoOYuLppw&utm_campaign=yelp_api_v3&utm_medium=api_v3_business_search&utm_source=5eN9XJbvGrZ_EWoOYuLppw", "review_count": 752, "categories": [{"alias": "german", "title": "German"}, {"alias": "pubs", "title": "Pubs"}], "rating": 4.0, "coordinates": {"latitude": 40.7552077, "longitude": -74.0314563558197}, "transactions": ["pickup", "delivery"], "price": "$$", "location": {"address1": "1422 Grand St", "address2": "", "address3": "", "city": "Hoboken", "zip_code": "07030", "country": "US", "state": "NJ", "display_address": ["1422 Grand St", "Hoboken, NJ 07030"]}, "phone": "+12016835465", "display_phone": "(201) 683-5465", "distance": 4494.967813558394}, {"id": "KY9HMKk4kl6uFz_6fiG1Gg", "alias": "polonica-restaurant-brooklyn", "name": "Polonica Restaurant", "image_url": "https://s3-media1.fl.yelpcdn.com/bphoto/7kFC9XYyTk-0cHbdHL4iQA/o.jpg", "is_closed": false, "url": "https://www.yelp.com/biz/polonica-restaurant-brooklyn?adjust_creative=5eN9XJbvGrZ_EWoOYuLppw&utm_campaign=yelp_api_v3&utm_medium=api_v3_business_search&utm_source=5eN9XJbvGrZ_EWoOYuLppw", "review_count": 180, "categories": [{"alias": "polish", "title": "Polish"}, {"alias": "tradamerican", "title": "American (Traditional)"}], "rating": 4.5, "coordinates": {"latitude": 40.62546, "longitude": -74.02995}, "transactions": ["pickup", "delivery"], "price": "$$", "location": {"address1": "8303 3rd Ave", "address2": "", "address3": "", "city": "Brooklyn", "zip_code": "11209", "country": "US", "state": "NY", "display_address": ["8303 3rd Ave", "Brooklyn, NY 11209"]}, "phone": "+17186305805", "display_phone": "(718) 630-5805", "distance": 15597.475913728367}, {"id": "StN5iogEjup2MWAzwaGDig", "alias": "royal-warsaw-restaurant-elmwood-park", "name": "Royal Warsaw Restaurant", "image_url": "https://s3-media2.fl.yelpcdn.com/bphoto/LJyfS5gdpkjk4EsTE6M4wg/o.jpg", "is_closed": false, "url": "https://www.yelp.com/biz/royal-warsaw-restaurant-elmwood-park?adjust_creative=5eN9XJbvGrZ_EWoOYuLppw&utm_campaign=yelp_api_v3&utm_medium=api_v3_business_search&utm_source=5eN9XJbvGrZ_EWoOYuLppw", "review_count": 222, "categories": [{"alias": "polish", "title": "Polish"}, {"alias": "modern_european", "title": "Modern European"}, {"alias": "burgers", "title": "Burgers"}], "rating": 4.0, "coordinates": {"latitude": 40.89127, "longitude": -74.12705}, "transactions": ["delivery"], "price": "$$", "location": {"address1": "871 River Dr", "address2": "", "address3": "", "city": "Elmwood Park", "zip_code": "07407", "country": "US", "state": "NJ", "display_address": ["871 River Dr", "Elmwood Park, NJ 07407"]}, "phone": "+12017949277", "display_phone": "(201) 794-9277", "distance": 19204.281434975463}, {"id": "I3boMDez9rUejzf7EyT2Dg", "alias": "jagerhaus-german-restaurant-and-biergarten-whitestone-3", "name": "Jagerhaus German Restaurant & Biergarten", "image_url": "https://s3-media4.fl.yelpcdn.com/bphoto/O0q1uP3aFeM1PaqipBDwsw/o.jpg", "is_closed": false, "url": "https://www.yelp.com/biz/jagerhaus-german-restaurant-and-biergarten-whitestone-3?adjust_creative=5eN9XJbvGrZ_EWoOYuLppw&utm_campaign=yelp_api_v3&utm_medium=api_v3_business_search&utm_source=5eN9XJbvGrZ_EWoOYuLppw", "review_count": 256, "categories": [{"alias": "german", "title": "German"}, {"alias": "gastropubs", "title": "Gastropubs"}, {"alias": "beerbar", "title": "Beer Bar"}], "rating": 4.0, "coordinates": {"latitude": 40.78663, "longitude": -73.81654}, "transactions": ["pickup", "delivery"], "price": "$$", "location": {"address1": "1516 149th St", "address2": "", "address3": "", "city": "Whitestone", "zip_code": "11357", "country": "US", "state": "NY", "display_address": ["1516 149th St", "Whitestone, NY 11357"]}, "phone": "+17187673486", "display_phone": "(718) 767-3486", "distance": 13957.172721326317}, {"id": "Fm1mE5Hf2k-yuzmFz98ufw", "alias": "manor-oktoberfest-forest-hills-44", "name": "Manor Oktoberfest", "image_url": "https://s3-media2.fl.yelpcdn.com/bphoto/RSqU9k_wSx_w69oRMB9zJw/o.jpg", "is_closed": false, "url": "https://www.yelp.com/biz/manor-oktoberfest-forest-hills-44?adjust_creative=5eN9XJbvGrZ_EWoOYuLppw&utm_campaign=yelp_api_v3&utm_medium=api_v3_business_search&utm_source=5eN9XJbvGrZ_EWoOYuLppw", "review_count": 234, "categories": [{"alias": "german", "title": "German"}, {"alias": "tradamerican", "title": "American (Traditional)"}, {"alias": "bars", "title": "Bars"}], "rating": 4.0, "coordinates": {"latitude": 40.7174275, "longitude": -73.8569518}, "transactions": ["delivery", "restaurant_reservation"], "price": "$$", "location": {"address1": "73-11 Yellowstone Blvd", "address2": "", "address3": "", "city": "Forest Hills", "zip_code": "11375", "country": "US", "state": "NY", "display_address": ["73-11 Yellowstone Blvd", "Forest Hills, NY 11375"]}, "phone": "+17185442400", "display_phone": "(718) 544-2400", "distance": 11303.518857574318}, {"id": "n8sDrOo5oOlhTS7eYkiZpA", "alias": "christinas-brooklyn", "name": "Christina's", "image_url": "https://s3-media4.fl.yelpcdn.com/bphoto/te02p8AeMSNxNCOtBI_ftw/o.jpg", "is_closed": false, "url": "https://www.yelp.com/biz/christinas-brooklyn?adjust_creative=5eN9XJbvGrZ_EWoOYuLppw&utm_campaign=yelp_api_v3&utm_medium=api_v3_business_search&utm_source=5eN9XJbvGrZ_EWoOYuLppw", "review_count": 147, "categories": [{"alias": "polish", "title": "Polish"}], "rating": 3.5, "coordinates": {"latitude": 40.7291, "longitude": -73.95406}, "transactions": [], "price": "$$", "location": {"address1": "853 Manhattan Ave", "address2": "", "address3": "", "city": "Brooklyn", "zip_code": "11222", "country": "US", "state": "NY", "display_address": ["853 Manhattan Ave", "Brooklyn, NY 11222"]}, "phone": "+17183834382", "display_phone": "(718) 383-4382", "distance": 4027.417803806325}, {"id": "Gvf470mVe1uRvi_FzR_rUQ", "alias": "johnnys-cafe-brooklyn-17", "name": "Johnny's Cafe", "image_url": "https://s3-media3.fl.yelpcdn.com/bphoto/wImam9mSLR39ViZJC7kArg/o.jpg", "is_closed": false, "url": "https://www.yelp.com/biz/johnnys-cafe-brooklyn-17?adjust_creative=5eN9XJbvGrZ_EWoOYuLppw&utm_campaign=yelp_api_v3&utm_medium=api_v3_business_search&utm_source=5eN9XJbvGrZ_EWoOYuLppw", "review_count": 24, "categories": [{"alias": "polish", "title": "Polish"}, {"alias": "cafes", "title": "Cafes"}], "rating": 3.5, "coordinates": {"latitude": 40.71605, "longitude": -73.90124}, "transactions": [], "price": "$$", "location": {"address1": "6039 Fresh Pond Rd", "address2": null, "address3": null, "city": "Brooklyn", "zip_code": "11222", "country": "US", "state": "NY", "display_address": ["6039 Fresh Pond Rd", "Brooklyn, NY 11222"]}, "phone": "+13474029900", "display_phone": "(347) 402-9900", "distance": 8149.823524572664}, {"id": "nZ0Y8ngCxpY3xlz4f4pNTQ", "alias": "brooklyn-beet-company-brooklyn", "name": "Brooklyn Beet Company", "image_url": "https://s3-media1.fl.yelpcdn.com/bphoto/gfXAEcfRRGb41ngrmug9Hw/o.jpg", "is_closed": false, "url": "https://www.yelp.com/biz/brooklyn-beet-company-brooklyn?adjust_creative=5eN9XJbvGrZ_EWoOYuLppw&utm_campaign=yelp_api_v3&utm_medium=api_v3_business_search&utm_source=5eN9XJbvGrZ_EWoOYuLppw", "review_count": 429, "categories": [{"alias": "modern_european", "title": "Modern European"}], "rating": 4.5, "coordinates": {"latitude": 40.6333416, "longitude": -74.0268741}, "transactions": [], "price": "$$", "location": {"address1": "7205 3rd Ave", "address2": "", "address3": "", "city": "Brooklyn", "zip_code": "11209", "country": "US", "state": "NY", "display_address": ["7205 3rd Ave", "Brooklyn, NY 11209"]}, "phone": "+13474920020", "display_phone": "(347) 492-0020", "distance": 14685.264941672964}, {"id": "rEw0U5tN2gTwoFrd-Yfsog", "alias": "schnitzel-haus-brooklyn", "name": "Schnitzel Haus", "image_url": "https://s3-media2.fl.yelpcdn.com/bphoto/TM1O9XE-p8rjn8h1L5v4BQ/o.jpg", "is_closed": false, "url": "https://www.yelp.com/biz/schnitzel-haus-brooklyn?adjust_creative=5eN9XJbvGrZ_EWoOYuLppw&utm_campaign=yelp_api_v3&utm_medium=api_v3_business_search&utm_source=5eN9XJbvGrZ_EWoOYuLppw", "review_count": 286, "categories": [{"alias": "german", "title": "German"}, {"alias": "pubs", "title": "Pubs"}], "rating": 4.0, "coordinates": {"latitude": 40.630358, "longitude": -74.021959}, "transactions": ["pickup", "delivery"], "price": "$$", "location": {"address1": "7319 5th Ave", "address2": "", "address3": "", "city": "Brooklyn", "zip_code": "11209", "country": "US", "state": "NY", "display_address": ["7319 5th Ave", "Brooklyn, NY 11209"]}, "phone": "+17188365600", "display_phone": "(718) 836-5600", "distance": 14896.994010550823}, {"id": "0iCISI2oP9bkS54hy68Xsw", "alias": "rolfs-bar-and-restaurant-new-york", "name": "Rolf's Bar & Restaurant", "image_url": "https://s3-media2.fl.yelpcdn.com/bphoto/6hzjg8gf2B7Ob4A1_1nahw/o.jpg", "is_closed": false, "url": "https://www.yelp.com/biz/rolfs-bar-and-restaurant-new-york?adjust_creative=5eN9XJbvGrZ_EWoOYuLppw&utm_campaign=yelp_api_v3&utm_medium=api_v3_business_search&utm_source=5eN9XJbvGrZ_EWoOYuLppw", "review_count": 991, "categories": [{"alias": "german", "title": "German"}, {"alias": "bars", "title": "Bars"}], "rating": 2.5, "coordinates": {"latitude": 40.73803, "longitude": -73.98353}, "transactions": [], "price": "$$$", "location": {"address1": "281 3rd Ave", "address2": "", "address3": "", "city": "New York", "zip_code": "10010", "country": "US", "state": "NY", "display_address": ["281 3rd Ave", "New York, NY 10010"]}, "phone": "+12124774750", "display_phone": "(212) 477-4750", "distance": 2502.9672138873443}, {"id": "scJdeBOpASetPOl82NkJFQ", "alias": "polka-dot-greenpoint", "name": "Polka Dot", "image_url": "https://s3-media2.fl.yelpcdn.com/bphoto/H_kgVu0lBqDVR0MHPMVTaQ/o.jpg", "is_closed": false, "url": "https://www.yelp.com/biz/polka-dot-greenpoint?adjust_creative=5eN9XJbvGrZ_EWoOYuLppw&utm_campaign=yelp_api_v3&utm_medium=api_v3_business_search&utm_source=5eN9XJbvGrZ_EWoOYuLppw", "review_count": 67, "categories": [{"alias": "polish", "title": "Polish"}], "rating": 4.0, "coordinates": {"latitude": 40.7261728595935, "longitude": -73.9519984757585}, "transactions": ["pickup", "delivery"], "price": "$", "location": {"address1": "726 Manhattan Ave", "address2": "", "address3": "", "city": "Greenpoint", "zip_code": "11222", "country": "US", "state": "NY", "display_address": ["726 Manhattan Ave", "Greenpoint, NY 11222"]}, "phone": "+17183492884", "display_phone": "(718) 349-2884", "distance": 4394.693518648521}, {"id": "jskICA1De3cPZ6weiNoiEw", "alias": "cafe-arzu-forest-hills", "name": "Cafe Arzu", "image_url": "https://s3-media2.fl.yelpcdn.com/bphoto/3xem4mqAOm126qk0cXN36A/o.jpg", "is_closed": false, "url": "https://www.yelp.com/biz/cafe-arzu-forest-hills?adjust_creative=5eN9XJbvGrZ_EWoOYuLppw&utm_campaign=yelp_api_v3&utm_medium=api_v3_business_search&utm_source=5eN9XJbvGrZ_EWoOYuLppw", "review_count": 104, "categories": [{"alias": "russian", "title": "Russian"}, {"alias": "kosher", "title": "Kosher"}, {"alias": "uzbek", "title": "Uzbek"}], "rating": 3.5, "coordinates": {"latitude": 40.7266529649496, "longitude": -73.8522481173277}, "transactions": ["pickup", "delivery"], "price": "$$", "location": {"address1": "101-05 Queens Blvd", "address2": "", "address3": "", "city": "Forest Hills", "zip_code": "11375", "country": "US", "state": "NY", "display_address": ["101-05 Queens Blvd", "Forest Hills, NY 11375"]}, "phone": "+17188303335", "display_phone": "(718) 830-3335", "distance": 11308.340173078283}, {"id": "cO7x8sT6qq9TkVeqU3VXSw", "alias": "morschers-pork-store-ridgewood", "name": "Morscher's Pork Store", "image_url": "https://s3-media3.fl.yelpcdn.com/bphoto/K4tU2OBLB-GdDR8LUg46jg/o.jpg", "is_closed": false, "url": "https://www.yelp.com/biz/morschers-pork-store-ridgewood?adjust_creative=5eN9XJbvGrZ_EWoOYuLppw&utm_campaign=yelp_api_v3&utm_medium=api_v3_business_search&utm_source=5eN9XJbvGrZ_EWoOYuLppw", "review_count": 42, "categories": [{"alias": "meats", "title": "Meat Shops"}, {"alias": "butcher", "title": "Butcher"}, {"alias": "german", "title": "German"}], "rating": 4.5, "coordinates": {"latitude": 40.7020797729492, "longitude": -73.9014205932617}, "transactions": [], "price": "$$", "location": {"address1": "5844 Catalpa Ave", "address2": "", "address3": "", "city": "Ridgewood", "zip_code": "11385", "country": "US", "state": "NY", "display_address": ["5844 Catalpa Ave", "Ridgewood, NY 11385"]}, "phone": "+17188211040", "display_phone": "(718) 821-1040", "distance": 9155.574084514497}, {"id": "kuUQ4vHtVDhmcwMO_zmW4A", "alias": "chefskis-polish-home-made-cooking-wallington", "name": "Chefski's Polish Home Made Cooking", "image_url": "https://s3-media3.fl.yelpcdn.com/bphoto/VT7EcISxRIdpYUYEqeysAA/o.jpg", "is_closed": false, "url": "https://www.yelp.com/biz/chefskis-polish-home-made-cooking-wallington?adjust_creative=5eN9XJbvGrZ_EWoOYuLppw&utm_campaign=yelp_api_v3&utm_medium=api_v3_business_search&utm_source=5eN9XJbvGrZ_EWoOYuLppw", "review_count": 48, "categories": [{"alias": "polish", "title": "Polish"}, {"alias": "soup", "title": "Soup"}, {"alias": "creperies", "title": "Creperies"}], "rating": 4.0, "coordinates": {"latitude": 40.8593740378521, "longitude": -74.104877887882}, "transactions": ["delivery"], "price": "$", "location": {"address1": "360 Main Ave", "address2": "", "address3": "", "city": "Wallington", "zip_code": "07057", "country": "US", "state": "NJ", "display_address": ["360 Main Ave", "Wallington, NJ 07057"]}, "phone": "+19734714193", "display_phone": "(973) 471-4193", "distance": 15323.355416497738}, {"id": "BBszjdL8z21T9JpnNYgGiw", "alias": "cherry-point-brooklyn", "name": "Cherry Point", "image_url": "https://s3-media4.fl.yelpcdn.com/bphoto/d7ob7ngPeQ7pvC1RGgJ9Yg/o.jpg", "is_closed": false, "url": "https://www.yelp.com/biz/cherry-point-brooklyn?adjust_creative=5eN9XJbvGrZ_EWoOYuLppw&utm_campaign=yelp_api_v3&utm_medium=api_v3_business_search&utm_source=5eN9XJbvGrZ_EWoOYuLppw", "review_count": 141, "categories": [{"alias": "cocktailbars", "title": "Cocktail Bars"}, {"alias": "british", "title": "British"}, {"alias": "modern_european", "title": "Modern European"}], "rating": 4.5, "coordinates": {"latitude": 40.7244954175426, "longitude": -73.9511575076571}, "transactions": [], "price": "$$", "location": {"address1": "664 Manhattan Ave", "address2": "", "address3": "", "city": "Brooklyn", "zip_code": "11222", "country": "US", "state": "NY", "display_address": ["664 Manhattan Ave", "Brooklyn, NY 11222"]}, "phone": "+17183893828", "display_phone": "(718) 389-3828", "distance": 4591.484115960356}, {"id": "19o6iblcJvz2hdPouYhXgg", "alias": "zum-stammtisch-glendale", "name": "Zum Stammtisch", "image_url": "https://s3-media4.fl.yelpcdn.com/bphoto/OAI9b7m-P32jNr_hsCE9yQ/o.jpg", "is_closed": false, "url": "https://www.yelp.com/biz/zum-stammtisch-glendale?adjust_creative=5eN9XJbvGrZ_EWoOYuLppw&utm_campaign=yelp_api_v3&utm_medium=api_v3_business_search&utm_source=5eN9XJbvGrZ_EWoOYuLppw", "review_count": 455, "categories": [{"alias": "german", "title": "German"}], "rating": 4.0, "coordinates": {"latitude": 40.7017618, "longitude": -73.8813408}, "transactions": [], "price": "$$", "location": {"address1": "6946 Myrtle Ave", "address2": "", "address3": "", "city": "Glendale", "zip_code": "11385", "country": "US", "state": "NY", "display_address": ["6946 Myrtle Ave", "Glendale, NY 11385"]}, "phone": "+17183863014", "display_phone": "(718) 386-3014", "distance": 10467.333652726671}, {"id": "zXiPZpz6G9LiRkb5vgphMw", "alias": "green-pear-cafe-hoboken", "name": "Green Pear Cafe", "image_url": "https://s3-media3.fl.yelpcdn.com/bphoto/J4kKoahGEn_tYJFXXzmrPQ/o.jpg", "is_closed": false, "url": "https://www.yelp.com/biz/green-pear-cafe-hoboken?adjust_creative=5eN9XJbvGrZ_EWoOYuLppw&utm_campaign=yelp_api_v3&utm_medium=api_v3_business_search&utm_source=5eN9XJbvGrZ_EWoOYuLppw", "review_count": 135, "categories": [{"alias": "breakfast_brunch", "title": "Breakfast & Brunch"}, {"alias": "gluten_free", "title": "Gluten-Free"}, {"alias": "modern_european", "title": "Modern European"}], "rating": 4.0, "coordinates": {"latitude": 40.7381444779813, "longitude": -74.0363041705471}, "transactions": ["pickup", "delivery"], "price": "$$", "location": {"address1": "93 Grand St", "address2": "", "address3": "", "city": "Hoboken", "zip_code": "07030", "country": "US", "state": "NJ", "display_address": ["93 Grand St", "Hoboken, NJ 07030"]}, "phone": "+12016590940", "display_phone": "(201) 659-0940", "distance": 5452.772946312465}, {"id": "TK1rbgBEPQWyxF4pu973oQ", "alias": "chriss-restaurant-brooklyn", "name": "Chris's Restaurant", "image_url": "https://s3-media1.fl.yelpcdn.com/bphoto/EApZ0PDpJl4N3OyhChOWhQ/o.jpg", "is_closed": false, "url": "https://www.yelp.com/biz/chriss-restaurant-brooklyn?adjust_creative=5eN9XJbvGrZ_EWoOYuLppw&utm_campaign=yelp_api_v3&utm_medium=api_v3_business_search&utm_source=5eN9XJbvGrZ_EWoOYuLppw", "review_count": 69, "categories": [{"alias": "polish", "title": "Polish"}, {"alias": "newamerican", "title": "American (New)"}, {"alias": "seafood", "title": "Seafood"}], "rating": 4.0, "coordinates": {"latitude": 40.60617, "longitude": -74.00116}, "transactions": ["pickup", "delivery"], "price": "$$", "location": {"address1": "1866 86th St", "address2": "", "address3": "", "city": "Brooklyn", "zip_code": "11214", "country": "US", "state": "NY", "display_address": ["1866 86th St", "Brooklyn, NY 11214"]}, "phone": "+13474623755", "display_phone": "(347) 462-3755", "distance": 17241.924378759337}, {"id": "-BmS1FH3DSK6fSifIt8GgQ", "alias": "nurnberger-bierhaus-staten-island", "name": "Nurnberger Bierhaus", "image_url": "https://s3-media2.fl.yelpcdn.com/bphoto/UmPYeEbm4w6GQTLXiRAE2A/o.jpg", "is_closed": false, "url": "https://www.yelp.com/biz/nurnberger-bierhaus-staten-island?adjust_creative=5eN9XJbvGrZ_EWoOYuLppw&utm_campaign=yelp_api_v3&utm_medium=api_v3_business_search&utm_source=5eN9XJbvGrZ_EWoOYuLppw", "review_count": 212, "categories": [{"alias": "german", "title": "German"}, {"alias": "bars", "title": "Bars"}], "rating": 4.0, "coordinates": {"latitude": 40.63482, "longitude": -74.10961}, "transactions": [], "price": "$$", "location": {"address1": "817 Castleton Ave", "address2": "", "address3": "", "city": "Staten Island", "zip_code": "10310", "country": "US", "state": "NY", "display_address": ["817 Castleton Ave", "Staten Island, NY 10310"]}, "phone": "+17188167461", "display_phone": "(718) 816-7461", "distance": 17785.393583387126}]