[{"id": "btLgjl8CEgW2wvB0ZI-Aqg", "alias": "mari-vanna-new-york-2", "name": "Mari Vanna", "image_url": "https://s3-media3.fl.yelpcdn.com/bphoto/Fp_3cLy4_9NXgia8MhyMFg/o.jpg", "is_closed": false, "url": "https://www.yelp.com/biz/mari-vanna-new-york-2?adjust_creative=5eN9XJbvGrZ_EWoOYuLppw&utm_campaign=yelp_api_v3&utm_medium=api_v3_business_search&utm_source=5eN9XJbvGrZ_EWoOYuLppw", "review_count": 651, "categories": [{"alias": "russian", "title": "Russian"}], "rating": 4.0, "coordinates": {"latitude": 40.73878, "longitude": -73.98858}, "transactions": ["pickup", "delivery"], "price": "$$$", "location": {"address1": "41 E 20th St", "address2": "", "address3": "", "city": "New York", "zip_code": "10003", "country": "US", "state": "NY", "display_address": ["41 E 20th St", "New York, NY 10003"]}, "phone": "+12127771955", "display_phone": "(212) 777-1955", "distance": 2528.4258011783504}, {"id": "lSJD2Gcf9LjJqpLE7pUlWQ", "alias": "russian-samovar-restaurant-and-piano-bar-new-york-2", "name": "Russian Samovar Restaurant and Piano Bar", "image_url": "https://s3-media2.fl.yelpcdn.com/bphoto/qXz65WYRYbyz3pSkhpiobg/o.jpg", "is_closed": false, "url": "https://www.yelp.com/biz/russian-samovar-restaurant-and-piano-bar-new-york-2?adjust_creative=5eN9XJbvGrZ_EWoOYuLppw&utm_campaign=yelp_api_v3&utm_medium=api_v3_business_search&utm_source=5eN9XJbvGrZ_EWoOYuLppw", "review_count": 445, "categories": [{"alias": "russian", "title": "Russian"}, {"alias": "bars", "title": "Bars"}, {"alias": "pianobars", "title": "Piano Bars"}], "rating": 4.0, "coordinates": {"latitude": 40.7632, "longitude": -73.98469}, "transactions": ["pickup", "restaurant_reservation", "delivery"], "price": "$$", "location": {"address1": "256 W 52nd St", "address2": "", "address3": "", "city": "New York", "zip_code": "10019", "country": "US", "state": "NY", "display_address": ["256 W 52nd St", "New York, NY 10019"]}, "phone": "+12127570168", "display_phone": "(212) 757-0168", "distance": 618.5090328538038}, {"id": "wJ9VnRlrJJP5QnVohBDjoA", "alias": "russian-vodka-room-new-york", "name": "Russian Vodka Room", "image_url": "https://s3-media3.fl.yelpcdn.com/bphoto/EJsBbPAFi6TqMN7C-RUCPA/o.jpg", "is_closed": false, "url": "https://www.yelp.com/biz/russian-vodka-room-new-york?adjust_creative=5eN9XJbvGrZ_EWoOYuLppw&utm_campaign=yelp_api_v3&utm_medium=api_v3_business_search&utm_source=5eN9XJbvGrZ_EWoOYuLppw", "review_count": 546, "categories": [{"alias": "lounges", "title": "Lounges"}, {"alias": "russian", "title": "Russian"}, {"alias": "jazzandblues", "title": "Jazz & Blues"}], "rating": 4.0, "coordinates": {"latitude": 40.76349, "longitude": -73.9848}, "transactions": [], "price": "$$", "location": {"address1": "265 W 52nd St", "address2": "", "address3": "", "city": "New York", "zip_code": "10019", "country": "US", "state": "NY", "display_address": ["265 W 52nd St", "New York, NY 10019"]}, "phone": "+12123075835", "display_phone": "(212) 307-5835", "distance": 634.9029495160531}, {"id": "9GBqbQ415CXaBa2gwHyFHQ", "alias": "sveta-new-york", "name": "Sveta", "image_url": "https://s3-media4.fl.yelpcdn.com/bphoto/QgMOtqIaaX1vriPl0El0wA/o.jpg", "is_closed": false, "url": "https://www.yelp.com/biz/sveta-new-york?adjust_creative=5eN9XJbvGrZ_EWoOYuLppw&utm_campaign=yelp_api_v3&utm_medium=api_v3_business_search&utm_source=5eN9XJbvGrZ_EWoOYuLppw", "review_count": 25, "categories": [{"alias": "russian", "title": "Russian"}, {"alias": "breakfast_brunch", "title": "Breakfast & Brunch"}], "rating": 5.0, "coordinates": {"latitude": 40.72967, "longitude": -74.00421}, "transactions": ["pickup", "delivery"], "location": {"address1": "64 Carmine St", "address2": "", "address3": "", "city": "New York", "zip_code": "10014", "country": "US", "state": "NY", "display_address": ["64 Carmine St", "New York, NY 10014"]}, "phone": "+12122034106", "display_phone": "(212) 203-4106", "distance": 4021.345303287223}, {"id": "6Lz2pAw1LqIa7nKsRUT52A", "alias": "tzarevna-new-york", "name": "Tzarevna", "image_url": "https://s3-media3.fl.yelpcdn.com/bphoto/RC_O0W3eOJvYVQE4mqky4w/o.jpg", "is_closed": false, "url": "https://www.yelp.com/biz/tzarevna-new-york?adjust_creative=5eN9XJbvGrZ_EWoOYuLppw&utm_campaign=yelp_api_v3&utm_medium=api_v3_business_search&utm_source=5eN9XJbvGrZ_EWoOYuLppw", "review_count": 54, "categories": [{"alias": "russian", "title": "Russian"}, {"alias": "modern_european", "title": "Modern European"}, {"alias": "newamerican", "title": "American (New)"}], "rating": 4.5, "coordinates": {"latitude": 40.72082, "longitude": -73.98874}, "transactions": ["pickup", "delivery"], "price": "$$", "location": {"address1": "154 Orchard St", "address2": null, "address3": "", "city": "New York", "zip_code": "10002", "country": "US", "state": "NY", "display_address": ["154 Orchard St", "New York, NY 10002"]}, "phone": "+19173882814", "display_phone": "(917) 388-2814", "distance": 4467.618079400598}, {"id": "CVxz9B5ncpMwVK1bk_c1YA", "alias": "veselka-new-york", "name": "Veselka", "image_url": "https://s3-media2.fl.yelpcdn.com/bphoto/f1RdxZKOM07-lytOMAHuSA/o.jpg", "is_closed": false, "url": "https://www.yelp.com/biz/veselka-new-york?adjust_creative=5eN9XJbvGrZ_EWoOYuLppw&utm_campaign=yelp_api_v3&utm_medium=api_v3_business_search&utm_source=5eN9XJbvGrZ_EWoOYuLppw", "review_count": 2559, "categories": [{"alias": "diners", "title": "Diners"}, {"alias": "ukrainian", "title": "Ukrainian"}], "rating": 4.0, "coordinates": {"latitude": 40.7289505004883, "longitude": -73.9869689941406}, "transactions": ["pickup", "delivery"], "price": "$$", "location": {"address1": "144 2nd Ave", "address2": "", "address3": "", "city": "New York", "zip_code": "10003", "country": "US", "state": "NY", "display_address": ["144 2nd Ave", "New York, NY 10003"]}, "phone": "+12122289682", "display_phone": "(212) 228-9682", "distance": 3551.245540961862}, {"id": "yKOTFgZmTFeas8Pvt077vA", "alias": "the-russian-tea-room-new-york", "name": "The Russian Tea Room", "image_url": "https://s3-media3.fl.yelpcdn.com/bphoto/fVA-wOVStNIIEu5LI65Fpw/o.jpg", "is_closed": false, "url": "https://www.yelp.com/biz/the-russian-tea-room-new-york?adjust_creative=5eN9XJbvGrZ_EWoOYuLppw&utm_campaign=yelp_api_v3&utm_medium=api_v3_business_search&utm_source=5eN9XJbvGrZ_EWoOYuLppw", "review_count": 1001, "categories": [{"alias": "tea", "title": "Tea Rooms"}, {"alias": "russian", "title": "Russian"}, {"alias": "venues", "title": "Venues & Event Spaces"}], "rating": 3.0, "coordinates": {"latitude": 40.764958, "longitude": -73.9794337}, "transactions": ["pickup", "delivery"], "price": "$$$$", "location": {"address1": "150 W 57th St", "address2": null, "address3": "", "city": "New York", "zip_code": "10019", "country": "US", "state": "NY", "display_address": ["150 W 57th St", "New York, NY 10019"]}, "phone": "+12125817100", "display_phone": "(212) 581-7100", "distance": 533.2326032622334}, {"id": "qIDwDSiUMzzq-MWWirTQwQ", "alias": "anyway-cafe-new-york", "name": "Anyway Cafe", "image_url": "https://s3-media1.fl.yelpcdn.com/bphoto/0BNEWiFtiGGYFstW2La50A/o.jpg", "is_closed": false, "url": "https://www.yelp.com/biz/anyway-cafe-new-york?adjust_creative=5eN9XJbvGrZ_EWoOYuLppw&utm_campaign=yelp_api_v3&utm_medium=api_v3_business_search&utm_source=5eN9XJbvGrZ_EWoOYuLppw", "review_count": 223, "categories": [{"alias": "russian", "title": "Russian"}], "rating": 4.0, "coordinates": {"latitude": 40.7250017, "longitude": -73.9906009}, "transactions": [], "price": "$$", "location": {"address1": "32 E 2nd St", "address2": null, "address3": "", "city": "New York", "zip_code": "10003", "country": "US", "state": "NY", "display_address": ["32 E 2nd St", "New York, NY 10003"]}, "phone": "+12125333412", "display_phone": "(212) 533-3412", "distance": 4046.057410612375}, {"id": "kjmpK3LsCJp2qGukcV_0aQ", "alias": "daa-dumplings-new-york-4", "name": "Daa! Dumplings", "image_url": "https://s3-media2.fl.yelpcdn.com/bphoto/4qt_lRTotRNG70meSSAtcA/o.jpg", "is_closed": false, "url": "https://www.yelp.com/biz/daa-dumplings-new-york-4?adjust_creative=5eN9XJbvGrZ_EWoOYuLppw&utm_campaign=yelp_api_v3&utm_medium=api_v3_business_search&utm_source=5eN9XJbvGrZ_EWoOYuLppw", "review_count": 115, "categories": [{"alias": "russian", "title": "Russian"}], "rating": 4.5, "coordinates": {"latitude": 40.6650377515107, "longitude": -73.9798863371133}, "transactions": ["pickup", "delivery"], "price": "$$", "location": {"address1": "1000 S 8th Ave", "address2": "", "address3": "", "city": "New York", "zip_code": "10019", "country": "US", "state": "NY", "display_address": ["1000 S 8th Ave", "New York, NY 10019"]}, "phone": "+12127576207", "display_phone": "(212) 757-6207", "distance": 839.6218645803032}, {"id": "ZgyvDF_hOWas3SXe0Hj7hA", "alias": "schilling-new-york", "name": "Schilling", "image_url": "https://s3-media1.fl.yelpcdn.com/bphoto/4VZAQADQQebHoqQf5gkbJg/o.jpg", "is_closed": false, "url": "https://www.yelp.com/biz/schilling-new-york?adjust_creative=5eN9XJbvGrZ_EWoOYuLppw&utm_campaign=yelp_api_v3&utm_medium=api_v3_business_search&utm_source=5eN9XJbvGrZ_EWoOYuLppw", "review_count": 153, "categories": [{"alias": "austrian", "title": "Austrian"}, {"alias": "bars", "title": "Bars"}, {"alias": "newamerican", "title": "American (New)"}], "rating": 4.0, "coordinates": {"latitude": 40.70857, "longitude": -74.014}, "transactions": ["pickup", "delivery"], "price": "$$", "location": {"address1": "109 Washington St", "address2": "", "address3": "", "city": "New York", "zip_code": "10006", "country": "US", "state": "NY", "display_address": ["109 Washington St", "New York, NY 10006"]}, "phone": "+12124061200", "display_phone": "(212) 406-1200", "distance": 6473.249072002631}, {"id": "MbwsCB7echBlVwzfJ_9c9g", "alias": "old-tbilisi-garden-new-york-5", "name": "Old Tbilisi Garden", "image_url": "https://s3-media2.fl.yelpcdn.com/bphoto/3CA9aOWMJ0Wa6GhlzmmtgQ/o.jpg", "is_closed": false, "url": "https://www.yelp.com/biz/old-tbilisi-garden-new-york-5?adjust_creative=5eN9XJbvGrZ_EWoOYuLppw&utm_campaign=yelp_api_v3&utm_medium=api_v3_business_search&utm_source=5eN9XJbvGrZ_EWoOYuLppw", "review_count": 419, "categories": [{"alias": "modern_european", "title": "Modern European"}, {"alias": "wine_bars", "title": "Wine Bars"}, {"alias": "georgian", "title": "Georgian"}], "rating": 3.5, "coordinates": {"latitude": 40.7287707, "longitude": -74.0008161}, "transactions": ["pickup", "restaurant_reservation", "delivery"], "price": "$$", "location": {"address1": "174 Bleecker St", "address2": "", "address3": "", "city": "New York", "zip_code": "10012", "country": "US", "state": "NY", "display_address": ["174 Bleecker St", "New York, NY 10012"]}, "phone": "+12124706064", "display_phone": "(212) 470-6064", "distance": 3969.8034289085344}, {"id": "8kG7sCmIimbiG3_hjQfYZg", "alias": "matryoshka-new-york", "name": "Matryoshka", "image_url": "https://s3-media4.fl.yelpcdn.com/bphoto/sNhBmBhNg4ZyOXm1CkSZrw/o.jpg", "is_closed": false, "url": "https://www.yelp.com/biz/matryoshka-new-york?adjust_creative=5eN9XJbvGrZ_EWoOYuLppw&utm_campaign=yelp_api_v3&utm_medium=api_v3_business_search&utm_source=5eN9XJbvGrZ_EWoOYuLppw", "review_count": 23, "categories": [{"alias": "russian", "title": "Russian"}], "rating": 3.5, "coordinates": {"latitude": 40.7092569, "longitude": -74.0058865}, "transactions": ["pickup", "delivery"], "price": "$$", "location": {"address1": "88 Fulton St", "address2": "", "address3": "", "city": "New York", "zip_code": "10038", "country": "US", "state": "NY", "display_address": ["88 Fulton St", "New York, NY 10038"]}, "phone": "+12127668600", "display_phone": "(212) 766-8600", "distance": 6118.0842836133415}, {"id": "tXZOJhUUknjTRRo9j4ckZg", "alias": "farida-central-asian-cuisine-and-grill-new-york-2", "name": "Farida Central Asian Cuisine & Grill", "image_url": "https://s3-media4.fl.yelpcdn.com/bphoto/zW9mXvMfv212Tdmkj4rOmw/o.jpg", "is_closed": false, "url": "https://www.yelp.com/biz/farida-central-asian-cuisine-and-grill-new-york-2?adjust_creative=5eN9XJbvGrZ_EWoOYuLppw&utm_campaign=yelp_api_v3&utm_medium=api_v3_business_search&utm_source=5eN9XJbvGrZ_EWoOYuLppw", "review_count": 300, "categories": [{"alias": "uzbek", "title": "Uzbek"}, {"alias": "russian", "title": "Russian"}, {"alias": "halal", "title": "Halal"}], "rating": 4.0, "coordinates": {"latitude": 40.75568, "longitude": -73.99441}, "transactions": ["pickup", "delivery"], "price": "$$", "location": {"address1": "498 9th Ave", "address2": null, "address3": "", "city": "New York", "zip_code": "10018", "country": "US", "state": "NY", "display_address": ["498 9th Ave", "New York, NY 10018"]}, "phone": "+16468632020", "display_phone": "(646) 863-2020", "distance": 1424.3679262327753}, {"id": "CPtMBPklRS2z36xiD9sA2A", "alias": "27-morton-new-york", "name": "27 Morton", "image_url": "https://s3-media1.fl.yelpcdn.com/bphoto/QiK2zwpbOHakh_ZidD9VRw/o.jpg", "is_closed": false, "url": "https://www.yelp.com/biz/27-morton-new-york?adjust_creative=5eN9XJbvGrZ_EWoOYuLppw&utm_campaign=yelp_api_v3&utm_medium=api_v3_business_search&utm_source=5eN9XJbvGrZ_EWoOYuLppw", "review_count": 62, "categories": [{"alias": "hungarian", "title": "Hungarian"}, {"alias": "german", "title": "German"}, {"alias": "georgian", "title": "Georgian"}], "rating": 4.5, "coordinates": {"latitude": 40.73111, "longitude": -74.00452}, "transactions": [], "price": "$$", "location": {"address1": "27 1/2 Morton St", "address2": "", "address3": null, "city": "New York", "zip_code": "10014", "country": "US", "state": "NY", "display_address": ["27 1/2 Morton St", "New York, NY 10014"]}, "phone": "+12129294339", "display_phone": "(212) 929-4339", "distance": 3900.621929775637}, {"id": "IvaqBqN274GeNxMl8sz3Pg", "alias": "streecha-new-york", "name": "Streecha", "image_url": "https://s3-media2.fl.yelpcdn.com/bphoto/VbyG6gfsI8T3hcQZC5IVCA/o.jpg", "is_closed": false, "url": "https://www.yelp.com/biz/streecha-new-york?adjust_creative=5eN9XJbvGrZ_EWoOYuLppw&utm_campaign=yelp_api_v3&utm_medium=api_v3_business_search&utm_source=5eN9XJbvGrZ_EWoOYuLppw", "review_count": 134, "categories": [{"alias": "ukrainian", "title": "Ukrainian"}], "rating": 4.5, "coordinates": {"latitude": 40.728496, "longitude": -73.9889284}, "transactions": [], "price": "$", "location": {"address1": "33 E 7th St", "address2": "", "address3": "", "city": "New York", "zip_code": "10003", "country": "US", "state": "NY", "display_address": ["33 E 7th St", "New York, NY 10003"]}, "phone": "+12126777160", "display_phone": "(212) 677-7160", "distance": 3634.741135280752}, {"id": "_lk_uxURy7g-R7TbrG6hww", "alias": "ukrainian-east-village-new-york", "name": "Ukrainian East Village", "image_url": "https://s3-media1.fl.yelpcdn.com/bphoto/Qu_KTMWye9kJozAriVMkjw/o.jpg", "is_closed": false, "url": "https://www.yelp.com/biz/ukrainian-east-village-new-york?adjust_creative=5eN9XJbvGrZ_EWoOYuLppw&utm_campaign=yelp_api_v3&utm_medium=api_v3_business_search&utm_source=5eN9XJbvGrZ_EWoOYuLppw", "review_count": 296, "categories": [{"alias": "ukrainian", "title": "Ukrainian"}], "rating": 4.0, "coordinates": {"latitude": 40.728847, "longitude": -73.987045}, "transactions": [], "price": "$$", "location": {"address1": "140 2nd Ave", "address2": "", "address3": "", "city": "New York", "zip_code": "10003", "country": "US", "state": "NY", "display_address": ["140 2nd Ave", "New York, NY 10003"]}, "phone": "+12126143283", "display_phone": "(212) 614-3283", "distance": 3561.1199954218114}, {"id": "DqZwDEYiggj5LbI86HFzIw", "alias": "ver\u014dnika-nyc-new-york-2", "name": "Ver\u014dnika NYC", "image_url": "https://s3-media1.fl.yelpcdn.com/bphoto/Pv4UrbBN5KWxmOn0eL1pFQ/o.jpg", "is_closed": false, "url": "https://www.yelp.com/biz/ver%C5%8Dnika-nyc-new-york-2?adjust_creative=5eN9XJbvGrZ_EWoOYuLppw&utm_campaign=yelp_api_v3&utm_medium=api_v3_business_search&utm_source=5eN9XJbvGrZ_EWoOYuLppw", "review_count": 31, "categories": [{"alias": "modern_european", "title": "Modern European"}], "rating": 4.0, "coordinates": {"latitude": 40.739248, "longitude": -73.986714}, "transactions": [], "location": {"address1": "281 Park Ave S", "address2": "", "address3": null, "city": "New York", "zip_code": "10010", "country": "US", "state": "NY", "display_address": ["281 Park Ave S", "New York, NY 10010"]}, "phone": "+16469936993", "display_phone": "(646) 993-6993", "distance": 2434.9913017615977}, {"id": "CPtao9WHPnVJGUS0H4Txww", "alias": "taam-tov-new-york", "name": "Taam Tov", "image_url": "https://s3-media2.fl.yelpcdn.com/bphoto/KsZd_HzKg2qbpgY1LcBtpg/o.jpg", "is_closed": false, "url": "https://www.yelp.com/biz/taam-tov-new-york?adjust_creative=5eN9XJbvGrZ_EWoOYuLppw&utm_campaign=yelp_api_v3&utm_medium=api_v3_business_search&utm_source=5eN9XJbvGrZ_EWoOYuLppw", "review_count": 130, "categories": [{"alias": "kosher", "title": "Kosher"}, {"alias": "uzbek", "title": "Uzbek"}], "rating": 3.5, "coordinates": {"latitude": 40.757703, "longitude": -73.980522}, "transactions": ["pickup", "delivery"], "price": "$$", "location": {"address1": "41 W 47th St", "address2": "", "address3": "", "city": "New York", "zip_code": "10036", "country": "US", "state": "NY", "display_address": ["41 W 47th St", "New York, NY 10036"]}, "phone": "+12127688001", "display_phone": "(212) 768-8001", "distance": 327.1209405049848}, {"id": "JJluK3s0SKFv02LKZbl_kw", "alias": "old-traditional-polish-cuisine-new-york", "name": "Old Traditional Polish Cuisine", "image_url": "https://s3-media2.fl.yelpcdn.com/bphoto/ZwWpxOFWciypQOTvqcALJQ/o.jpg", "is_closed": false, "url": "https://www.yelp.com/biz/old-traditional-polish-cuisine-new-york?adjust_creative=5eN9XJbvGrZ_EWoOYuLppw&utm_campaign=yelp_api_v3&utm_medium=api_v3_business_search&utm_source=5eN9XJbvGrZ_EWoOYuLppw", "review_count": 63, "categories": [{"alias": "polish", "title": "Polish"}, {"alias": "foodtrucks", "title": "Food Trucks"}, {"alias": "catering", "title": "Caterers"}], "rating": 4.5, "coordinates": {"latitude": 40.7647053435302, "longitude": -73.9821391124684}, "transactions": [], "price": "$", "location": {"address1": "55TH St Broadway Ave", "address2": "", "address3": "", "city": "New York", "zip_code": "10020", "country": "US", "state": "NY", "display_address": ["55TH St Broadway Ave", "New York, NY 10020"]}, "phone": "+13474698867", "display_phone": "(347) 469-8867", "distance": 585.8595426989243}, {"id": "ClK88VhNAqevlM8hSltcOA", "alias": "boon-european-bistro-new-york", "name": "Boon European Bistro", "image_url": "https://s3-media2.fl.yelpcdn.com/bphoto/ZiyAKKLgvewALKQ-2asEEw/o.jpg", "is_closed": false, "url": "https://www.yelp.com/biz/boon-european-bistro-new-york?adjust_creative=5eN9XJbvGrZ_EWoOYuLppw&utm_campaign=yelp_api_v3&utm_medium=api_v3_business_search&utm_source=5eN9XJbvGrZ_EWoOYuLppw", "review_count": 32, "categories": [{"alias": "modern_european", "title": "Modern European"}, {"alias": "breakfast_brunch", "title": "Breakfast & Brunch"}, {"alias": "cakeshop", "title": "Patisserie/Cake Shop"}], "rating": 4.5, "coordinates": {"latitude": 40.759747, "longitude": -73.992092}, "transactions": ["pickup", "delivery"], "price": "$$", "location": {"address1": "402 W 44th St", "address2": null, "address3": "", "city": "New York", "zip_code": "10036", "country": "US", "state": "NY", "display_address": ["402 W 44th St", "New York, NY 10036"]}, "phone": "+12122468880", "display_phone": "(212) 246-8880", "distance": 1144.643454778438}, {"id": "NirY5TkWZBNuuAgbjdG0AA", "alias": "bohemian-spirit-restaurant-new-york", "name": "Bohemian Spirit Restaurant", "image_url": "https://s3-media4.fl.yelpcdn.com/bphoto/rgXO8MNYTvqVbuM1WJBpqQ/o.jpg", "is_closed": false, "url": "https://www.yelp.com/biz/bohemian-spirit-restaurant-new-york?adjust_creative=5eN9XJbvGrZ_EWoOYuLppw&utm_campaign=yelp_api_v3&utm_medium=api_v3_business_search&utm_source=5eN9XJbvGrZ_EWoOYuLppw", "review_count": 85, "categories": [{"alias": "czech", "title": "Czech"}, {"alias": "bars", "title": "Bars"}], "rating": 4.0, "coordinates": {"latitude": 40.76898, "longitude": -73.95643}, "transactions": [], "price": "$$", "location": {"address1": "321 E 73rd St", "address2": "", "address3": null, "city": "New York", "zip_code": "10021", "country": "US", "state": "NY", "display_address": ["321 E 73rd St", "New York, NY 10021"]}, "phone": "+12128611038", "display_phone": "(212) 861-1038", "distance": 2097.6151978309836}, {"id": "zMV3am6rEoP43jLeHvzUeA", "alias": "antons-dumplings-new-york-2", "name": "Anton's Dumplings", "image_url": "https://s3-media1.fl.yelpcdn.com/bphoto/vaQoB03g24EvIogIb2gaMw/o.jpg", "is_closed": false, "url": "https://www.yelp.com/biz/antons-dumplings-new-york-2?adjust_creative=5eN9XJbvGrZ_EWoOYuLppw&utm_campaign=yelp_api_v3&utm_medium=api_v3_business_search&utm_source=5eN9XJbvGrZ_EWoOYuLppw", "review_count": 65, "categories": [{"alias": "foodtrucks", "title": "Food Trucks"}, {"alias": "russian", "title": "Russian"}], "rating": 4.5, "coordinates": {"latitude": 40.7311701, "longitude": -74.0013587}, "transactions": ["pickup", "delivery"], "price": "$", "location": {"address1": "", "address2": "", "address3": "", "city": "New york", "zip_code": "10011", "country": "US", "state": "NY", "display_address": ["New york, NY 10011"]}, "phone": "", "display_phone": "", "distance": 3760.139101707964}, {"id": "SYTBg4SzYuZxrxK3YDU2xg", "alias": "cheburechnaya-rego-park", "name": "Cheburechnaya", "image_url": "https://s3-media3.fl.yelpcdn.com/bphoto/YIWVRfVWbG4YnHiG-BxXTw/o.jpg", "is_closed": false, "url": "https://www.yelp.com/biz/cheburechnaya-rego-park?adjust_creative=5eN9XJbvGrZ_EWoOYuLppw&utm_campaign=yelp_api_v3&utm_medium=api_v3_business_search&utm_source=5eN9XJbvGrZ_EWoOYuLppw", "review_count": 253, "categories": [{"alias": "kosher", "title": "Kosher"}, {"alias": "russian", "title": "Russian"}, {"alias": "uzbek", "title": "Uzbek"}], "rating": 4.0, "coordinates": {"latitude": 40.7275992341691, "longitude": -73.8640816882253}, "transactions": ["pickup", "delivery"], "price": "$$", "location": {"address1": "9209 63rd Dr", "address2": "Ste A", "address3": "", "city": "Rego Park", "zip_code": "11374", "country": "US", "state": "NY", "display_address": ["9209 63rd Dr", "Ste A", "Rego Park, NY 11374"]}, "phone": "+17188979080", "display_phone": "(718) 897-9080", "distance": 10298.888733989836}, {"id": "2BRJP7YeiNuWSwyn2TdAoA", "alias": "kafana-new-york", "name": "Kafana", "image_url": "https://s3-media1.fl.yelpcdn.com/bphoto/pnfRNONyNVAn9WBKtfwm0w/o.jpg", "is_closed": false, "url": "https://www.yelp.com/biz/kafana-new-york?adjust_creative=5eN9XJbvGrZ_EWoOYuLppw&utm_campaign=yelp_api_v3&utm_medium=api_v3_business_search&utm_source=5eN9XJbvGrZ_EWoOYuLppw", "review_count": 401, "categories": [{"alias": "modern_european", "title": "Modern European"}], "rating": 4.0, "coordinates": {"latitude": 40.72432, "longitude": -73.97851}, "transactions": [], "price": "$$", "location": {"address1": "116 Ave C", "address2": "", "address3": "", "city": "New York", "zip_code": "10009", "country": "US", "state": "NY", "display_address": ["116 Ave C", "New York, NY 10009"]}, "phone": "+12123538000", "display_phone": "(212) 353-8000", "distance": 3988.1523755274893}, {"id": "Itg3FiXNyf9NXKegy46Lwg", "alias": "taste-of-samarkand-middle-village", "name": "Taste of Samarkand", "image_url": "https://s3-media3.fl.yelpcdn.com/bphoto/6d0T8AhPSbb3ZlRlfCKCqw/o.jpg", "is_closed": false, "url": "https://www.yelp.com/biz/taste-of-samarkand-middle-village?adjust_creative=5eN9XJbvGrZ_EWoOYuLppw&utm_campaign=yelp_api_v3&utm_medium=api_v3_business_search&utm_source=5eN9XJbvGrZ_EWoOYuLppw", "review_count": 127, "categories": [{"alias": "uzbek", "title": "Uzbek"}, {"alias": "kosher", "title": "Kosher"}], "rating": 4.0, "coordinates": {"latitude": 40.7266223, "longitude": -73.870707}, "transactions": [], "price": "$$", "location": {"address1": "62-16 Woodhaven Blvd", "address2": null, "address3": "", "city": "Middle Village", "zip_code": "11374", "country": "US", "state": "NY", "display_address": ["62-16 Woodhaven Blvd", "Middle Village, NY 11374"]}, "phone": "+17186722121", "display_phone": "(718) 672-2121", "distance": 9832.64357024278}, {"id": "SvNoFlsMTcBzDv9OirfGZw", "alias": "little-poland-new-york", "name": "Little Poland", "image_url": "https://s3-media2.fl.yelpcdn.com/bphoto/-BOCjznTmhemc_ktoZUvEg/o.jpg", "is_closed": false, "url": "https://www.yelp.com/biz/little-poland-new-york?adjust_creative=5eN9XJbvGrZ_EWoOYuLppw&utm_campaign=yelp_api_v3&utm_medium=api_v3_business_search&utm_source=5eN9XJbvGrZ_EWoOYuLppw", "review_count": 308, "categories": [{"alias": "diners", "title": "Diners"}, {"alias": "polish", "title": "Polish"}], "rating": 4.0, "coordinates": {"latitude": 40.73119, "longitude": -73.9855199}, "transactions": ["pickup", "delivery"], "price": "$$", "location": {"address1": "200 2nd Ave", "address2": null, "address3": "", "city": "New York", "zip_code": "10003", "country": "US", "state": "NY", "display_address": ["200 2nd Ave", "New York, NY 10003"]}, "phone": "+12127779728", "display_phone": "(212) 777-9728", "distance": 3282.8911489204197}, {"id": "cc7e4KgB4_ZICumwdEKOww", "alias": "lada-cafe-cliffside-park", "name": "Lada Cafe", "image_url": "https://s3-media2.fl.yelpcdn.com/bphoto/kV6IPeyqGqP4Vd-dEB_ypw/o.jpg", "is_closed": false, "url": "https://www.yelp.com/biz/lada-cafe-cliffside-park?adjust_creative=5eN9XJbvGrZ_EWoOYuLppw&utm_campaign=yelp_api_v3&utm_medium=api_v3_business_search&utm_source=5eN9XJbvGrZ_EWoOYuLppw", "review_count": 32, "categories": [{"alias": "russian", "title": "Russian"}, {"alias": "cafes", "title": "Cafes"}], "rating": 4.0, "coordinates": {"latitude": 40.82213, "longitude": -73.98994}, "transactions": ["delivery"], "price": "$$", "location": {"address1": "520 Anderson Ave", "address2": "", "address3": "", "city": "Cliffside Park", "zip_code": "07010", "country": "US", "state": "NJ", "display_address": ["520 Anderson Ave", "Cliffside Park, NJ 07010"]}, "phone": "+12018408088", "display_phone": "(201) 840-8088", "distance": 6961.849435550229}, {"id": "BxNs9d8rEW3Tls-nVdmIgA", "alias": "reichenbach-hall-new-york", "name": "Reichenbach Hall", "image_url": "https://s3-media4.fl.yelpcdn.com/bphoto/--zYyz2BO1gUg1fu_8X8rA/o.jpg", "is_closed": false, "url": "https://www.yelp.com/biz/reichenbach-hall-new-york?adjust_creative=5eN9XJbvGrZ_EWoOYuLppw&utm_campaign=yelp_api_v3&utm_medium=api_v3_business_search&utm_source=5eN9XJbvGrZ_EWoOYuLppw", "review_count": 754, "categories": [{"alias": "bars", "title": "Bars"}, {"alias": "german", "title": "German"}, {"alias": "pretzels", "title": "Pretzels"}], "rating": 4.0, "coordinates": {"latitude": 40.7508, "longitude": -73.98401}, "transactions": [], "price": "$$", "location": {"address1": "5 W 37th St", "address2": "", "address3": "", "city": "New York", "zip_code": "10018", "country": "US", "state": "NY", "display_address": ["5 W 37th St", "New York, NY 10018"]}, "phone": "+12123027744", "display_phone": "(212) 302-7744", "distance": 1136.234318581736}, {"id": "aLO4CszMD7vXCzA13FPx8g", "alias": "babushkas-russian-dumplings-new-york", "name": "Babushkas Russian Dumplings", "image_url": "https://s3-media2.fl.yelpcdn.com/bphoto/uSz1Ek3V9XT1CMEpko1KLw/o.jpg", "is_closed": false, "url": "https://www.yelp.com/biz/babushkas-russian-dumplings-new-york?adjust_creative=5eN9XJbvGrZ_EWoOYuLppw&utm_campaign=yelp_api_v3&utm_medium=api_v3_business_search&utm_source=5eN9XJbvGrZ_EWoOYuLppw", "review_count": 2, "categories": [{"alias": "foodtrucks", "title": "Food Trucks"}, {"alias": "russian", "title": "Russian"}], "rating": 3.0, "coordinates": {"latitude": 40.731101, "longitude": -74.001217}, "transactions": ["pickup", "delivery"], "location": {"address1": "320 6th Ave", "address2": "", "address3": null, "city": "New York", "zip_code": "10014", "country": "US", "state": "NY", "display_address": ["320 6th Ave", "New York, NY 10014"]}, "phone": "", "display_phone": "", "distance": 3760.6525837407544}, {"id": "1XK53gaHMFQIA4VW3B6k1Q", "alias": "abaita-new-york", "name": "Abaita", "image_url": "https://s3-media4.fl.yelpcdn.com/bphoto/bPe5t9PyoW2oZCDWXoR5yw/o.jpg", "is_closed": false, "url": "https://www.yelp.com/biz/abaita-new-york?adjust_creative=5eN9XJbvGrZ_EWoOYuLppw&utm_campaign=yelp_api_v3&utm_medium=api_v3_business_search&utm_source=5eN9XJbvGrZ_EWoOYuLppw", "review_count": 70, "categories": [{"alias": "kosher", "title": "Kosher"}, {"alias": "vegetarian", "title": "Vegetarian"}, {"alias": "pizza", "title": "Pizza"}], "rating": 4.0, "coordinates": {"latitude": 40.755541483222, "longitude": -73.9718742367706}, "transactions": [], "location": {"address1": "145 E 49th St", "address2": null, "address3": "", "city": "New York", "zip_code": "10017", "country": "US", "state": "NY", "display_address": ["145 E 49th St", "New York, NY 10017"]}, "phone": "+16468085518", "display_phone": "(646) 808-5518", "distance": 762.5773325457781}, {"id": "V96jTnFqErW8sDrzpz1Apg", "alias": "odessa-restaurant-new-york-129", "name": "Odessa Restaurant", "image_url": "https://s3-media3.fl.yelpcdn.com/bphoto/EKJISnOo1vrPD7Hn3066VA/o.jpg", "is_closed": false, "url": "https://www.yelp.com/biz/odessa-restaurant-new-york-129?adjust_creative=5eN9XJbvGrZ_EWoOYuLppw&utm_campaign=yelp_api_v3&utm_medium=api_v3_business_search&utm_source=5eN9XJbvGrZ_EWoOYuLppw", "review_count": 357, "categories": [{"alias": "diners", "title": "Diners"}, {"alias": "ukrainian", "title": "Ukrainian"}, {"alias": "greek", "title": "Greek"}], "rating": 3.5, "coordinates": {"latitude": 40.7263299864, "longitude": -73.9834847979}, "transactions": ["pickup", "delivery"], "price": "$", "location": {"address1": "119 Ave A", "address2": "", "address3": "", "city": "New York", "zip_code": "10009", "country": "US", "state": "NY", "display_address": ["119 Ave A", "New York, NY 10009"]}, "phone": "+12122531482", "display_phone": "(212) 253-1482", "distance": 3791.1548083997477}, {"id": "a6SzfZ2F-uELmymusQVMBg", "alias": "karczma-brooklyn", "name": "Karczma", "image_url": "https://s3-media3.fl.yelpcdn.com/bphoto/Eq1HKex42BFN61jBgTbb0g/o.jpg", "is_closed": false, "url": "https://www.yelp.com/biz/karczma-brooklyn?adjust_creative=5eN9XJbvGrZ_EWoOYuLppw&utm_campaign=yelp_api_v3&utm_medium=api_v3_business_search&utm_source=5eN9XJbvGrZ_EWoOYuLppw", "review_count": 561, "categories": [{"alias": "polish", "title": "Polish"}], "rating": 4.5, "coordinates": {"latitude": 40.729977, "longitude": -73.955128}, "transactions": ["pickup"], "price": "$$", "location": {"address1": "136 Greenpoint Ave", "address2": "", "address3": "", "city": "Brooklyn", "zip_code": "11222", "country": "US", "state": "NY", "display_address": ["136 Greenpoint Ave", "Brooklyn, NY 11222"]}, "phone": "+17183491744", "display_phone": "(718) 349-1744", "distance": 3896.394992162843}, {"id": "amoGEhgkE4xcNXwYqWeoaw", "alias": "yonah-schimmels-knish-bakery-new-york", "name": "Yonah Schimmel's Knish Bakery", "image_url": "https://s3-media3.fl.yelpcdn.com/bphoto/lyvUu5EXQGgN37dALcdoLA/o.jpg", "is_closed": false, "url": "https://www.yelp.com/biz/yonah-schimmels-knish-bakery-new-york?adjust_creative=5eN9XJbvGrZ_EWoOYuLppw&utm_campaign=yelp_api_v3&utm_medium=api_v3_business_search&utm_source=5eN9XJbvGrZ_EWoOYuLppw", "review_count": 629, "categories": [{"alias": "kosher", "title": "Kosher"}, {"alias": "vegan", "title": "Vegan"}, {"alias": "comfortfood", "title": "Comfort Food"}], "rating": 4.0, "coordinates": {"latitude": 40.723133, "longitude": -73.990144}, "transactions": ["pickup", "delivery"], "price": "$", "location": {"address1": "137 E Houston St", "address2": "", "address3": "", "city": "New York", "zip_code": "10002", "country": "US", "state": "NY", "display_address": ["137 E Houston St", "New York, NY 10002"]}, "phone": "+12124772858", "display_phone": "(212) 477-2858", "distance": 4239.4226558391865}, {"id": "qbEuBOWUXO2s-C28xJ0tOQ", "alias": "koliba-astoria", "name": "Koliba", "image_url": "https://s3-media1.fl.yelpcdn.com/bphoto/hmqpVugMgEgZcGAHum2W9A/o.jpg", "is_closed": false, "url": "https://www.yelp.com/biz/koliba-astoria?adjust_creative=5eN9XJbvGrZ_EWoOYuLppw&utm_campaign=yelp_api_v3&utm_medium=api_v3_business_search&utm_source=5eN9XJbvGrZ_EWoOYuLppw", "review_count": 109, "categories": [{"alias": "modern_european", "title": "Modern European"}, {"alias": "czech", "title": "Czech"}, {"alias": "slovakian", "title": "Slovakian"}], "rating": 4.0, "coordinates": {"latitude": 40.7743701, "longitude": -73.9126345}, "transactions": [], "price": "$$", "location": {"address1": "3111 23rd Ave", "address2": "", "address3": "", "city": "Astoria", "zip_code": "11105", "country": "US", "state": "NY", "display_address": ["3111 23rd Ave", "Astoria, NY 11105"]}, "phone": "+17186260430", "display_phone": "(718) 626-0430", "distance": 5789.88011093482}, {"id": "BvlM5_jMd0iSwHly8iwffg", "alias": "fine-and-schapiro-new-york", "name": "Fine & Schapiro", "image_url": "https://s3-media2.fl.yelpcdn.com/bphoto/vyv4UGHcPqvaplP3YLti3A/o.jpg", "is_closed": false, "url": "https://www.yelp.com/biz/fine-and-schapiro-new-york?adjust_creative=5eN9XJbvGrZ_EWoOYuLppw&utm_campaign=yelp_api_v3&utm_medium=api_v3_business_search&utm_source=5eN9XJbvGrZ_EWoOYuLppw", "review_count": 184, "categories": [{"alias": "delis", "title": "Delis"}, {"alias": "kosher", "title": "Kosher"}, {"alias": "sandwiches", "title": "Sandwiches"}], "rating": 4.0, "coordinates": {"latitude": 40.77776, "longitude": -73.98035}, "transactions": ["pickup", "delivery"], "price": "$$", "location": {"address1": "138 W 72nd St", "address2": "", "address3": "", "city": "New York", "zip_code": "10023", "country": "US", "state": "NY", "display_address": ["138 W 72nd St", "New York, NY 10023"]}, "phone": "+16468543640", "display_phone": "(646) 854-3640", "distance": 1957.8498007948772}, {"id": "cAcazXWgluB_2-n0KbDQXQ", "alias": "old-baku-brooklyn", "name": "Old Baku", "image_url": "https://s3-media2.fl.yelpcdn.com/bphoto/dbfN56_hXF9e47Rc7ZvBiQ/o.jpg", "is_closed": false, "url": "https://www.yelp.com/biz/old-baku-brooklyn?adjust_creative=5eN9XJbvGrZ_EWoOYuLppw&utm_campaign=yelp_api_v3&utm_medium=api_v3_business_search&utm_source=5eN9XJbvGrZ_EWoOYuLppw", "review_count": 60, "categories": [{"alias": "mideastern", "title": "Middle Eastern"}, {"alias": "russian", "title": "Russian"}, {"alias": "hookah_bars", "title": "Hookah Bars"}], "rating": 4.0, "coordinates": {"latitude": 40.635906, "longitude": -73.977561}, "transactions": ["pickup", "delivery"], "price": "$$", "location": {"address1": "115 Ditmas Ave", "address2": "", "address3": "", "city": "Brooklyn", "zip_code": "11218", "country": "US", "state": "NY", "display_address": ["115 Ditmas Ave", "Brooklyn, NY 11218"]}, "phone": "+17185766399", "display_phone": "(718) 576-6399", "distance": 13830.050011157857}, {"id": "_iJChYU1yfsvqRv9e5Ic0A", "alias": "krolewskie-jadlo-brooklyn", "name": "Krolewskie Jadlo", "image_url": "https://s3-media2.fl.yelpcdn.com/bphoto/BpM1eAaGzp8B23RlM5BsQw/o.jpg", "is_closed": false, "url": "https://www.yelp.com/biz/krolewskie-jadlo-brooklyn?adjust_creative=5eN9XJbvGrZ_EWoOYuLppw&utm_campaign=yelp_api_v3&utm_medium=api_v3_business_search&utm_source=5eN9XJbvGrZ_EWoOYuLppw", "review_count": 413, "categories": [{"alias": "polish", "title": "Polish"}], "rating": 4.0, "coordinates": {"latitude": 40.72532, "longitude": -73.95153}, "transactions": ["pickup", "delivery"], "price": "$$", "location": {"address1": "694 Manhattan Ave", "address2": null, "address3": "", "city": "Brooklyn", "zip_code": "11222", "country": "US", "state": "NY", "display_address": ["694 Manhattan Ave", "Brooklyn, NY 11222"]}, "phone": "+17183838993", "display_phone": "(718) 383-8993", "distance": 4499.111254951764}, {"id": "cnHk2ubYJOMiZ-HWLI1SbA", "alias": "escape-restaurant-lyndhurst", "name": "Escape Restaurant", "image_url": "https://s3-media4.fl.yelpcdn.com/bphoto/ZoHCKgy-_VGfBQhEQPO-ZQ/o.jpg", "is_closed": false, "url": "https://www.yelp.com/biz/escape-restaurant-lyndhurst?adjust_creative=5eN9XJbvGrZ_EWoOYuLppw&utm_campaign=yelp_api_v3&utm_medium=api_v3_business_search&utm_source=5eN9XJbvGrZ_EWoOYuLppw", "review_count": 16, "categories": [{"alias": "russian", "title": "Russian"}], "rating": 3.5, "coordinates": {"latitude": 40.805667, "longitude": -74.13536}, "transactions": ["pickup", "delivery"], "price": "$$$$", "location": {"address1": "775 Riverside Ave", "address2": "", "address3": "", "city": "Lyndhurst", "zip_code": "07071", "country": "US", "state": "NJ", "display_address": ["775 Riverside Ave", "Lyndhurst, NJ 07071"]}, "phone": "+12019336478", "display_phone": "(201) 933-6478", "distance": 14136.761793294574}, {"id": "CBa-eX05NgW8-1uK3ewL7A", "alias": "syberia-international-food-fort-lee", "name": "Syberia International Food", "image_url": "https://s3-media2.fl.yelpcdn.com/bphoto/Y8zIGAb1NdeYocmGKiw6jg/o.jpg", "is_closed": false, "url": "https://www.yelp.com/biz/syberia-international-food-fort-lee?adjust_creative=5eN9XJbvGrZ_EWoOYuLppw&utm_campaign=yelp_api_v3&utm_medium=api_v3_business_search&utm_source=5eN9XJbvGrZ_EWoOYuLppw", "review_count": 11, "categories": [{"alias": "russian", "title": "Russian"}, {"alias": "delis", "title": "Delis"}, {"alias": "sandwiches", "title": "Sandwiches"}], "rating": 3.5, "coordinates": {"latitude": 40.8321126, "longitude": -73.9828845}, "transactions": [], "price": "$$", "location": {"address1": "268 Columbia Ave", "address2": "", "address3": "", "city": "Fort Lee", "zip_code": "07024", "country": "US", "state": "NJ", "display_address": ["268 Columbia Ave", "Fort Lee, NJ 07024"]}, "phone": "+12012242555", "display_phone": "(201) 224-2555", "distance": 8009.068520911118}, {"id": "A0GVSLdYCEIr-yLZnqhJkg", "alias": "marani-rego-park-5", "name": "Marani", "image_url": "https://s3-media4.fl.yelpcdn.com/bphoto/dYsMdryXaZw5dTsj0hqaJQ/o.jpg", "is_closed": false, "url": "https://www.yelp.com/biz/marani-rego-park-5?adjust_creative=5eN9XJbvGrZ_EWoOYuLppw&utm_campaign=yelp_api_v3&utm_medium=api_v3_business_search&utm_source=5eN9XJbvGrZ_EWoOYuLppw", "review_count": 247, "categories": [{"alias": "mediterranean", "title": "Mediterranean"}, {"alias": "kosher", "title": "Kosher"}, {"alias": "georgian", "title": "Georgian"}], "rating": 4.5, "coordinates": {"latitude": 40.731202, "longitude": -73.859833}, "transactions": ["pickup", "delivery"], "price": "$$", "location": {"address1": "97-26 63rd Rd", "address2": "", "address3": "", "city": "Rego Park", "zip_code": "11374", "country": "US", "state": "NY", "display_address": ["97-26 63rd Rd", "Rego Park, NY 11374"]}, "phone": "+17185690600", "display_phone": "(718) 569-0600", "distance": 10504.51614748658}, {"id": "yk-urU0Zz41LiTS2ZBZf1Q", "alias": "romanian-garden-sunnyside-4", "name": "Romanian Garden", "image_url": "https://s3-media3.fl.yelpcdn.com/bphoto/n08S7WGxiR4mYbYiAYRyGQ/o.jpg", "is_closed": false, "url": "https://www.yelp.com/biz/romanian-garden-sunnyside-4?adjust_creative=5eN9XJbvGrZ_EWoOYuLppw&utm_campaign=yelp_api_v3&utm_medium=api_v3_business_search&utm_source=5eN9XJbvGrZ_EWoOYuLppw", "review_count": 126, "categories": [{"alias": "mediterranean", "title": "Mediterranean"}, {"alias": "modern_european", "title": "Modern European"}], "rating": 3.5, "coordinates": {"latitude": 40.7449088452058, "longitude": -73.921469294812}, "transactions": ["pickup", "delivery"], "price": "$$", "location": {"address1": "43-06 43rd Ave", "address2": "", "address3": "", "city": "Sunnyside", "zip_code": "11104", "country": "US", "state": "NY", "display_address": ["43-06 43rd Ave", "Sunnyside, NY 11104"]}, "phone": "+17187867894", "display_phone": "(718) 786-7894", "distance": 5096.5340858942345}, {"id": "bh_I5H4LYQNrJw5T9-lhVQ", "alias": "elza-fancy-food-brooklyn", "name": "Elza Fancy Food", "image_url": "https://s3-media3.fl.yelpcdn.com/bphoto/27p1xQV2X8Mmy2ihr9mwIg/o.jpg", "is_closed": false, "url": "https://www.yelp.com/biz/elza-fancy-food-brooklyn?adjust_creative=5eN9XJbvGrZ_EWoOYuLppw&utm_campaign=yelp_api_v3&utm_medium=api_v3_business_search&utm_source=5eN9XJbvGrZ_EWoOYuLppw", "review_count": 47, "categories": [{"alias": "uzbek", "title": "Uzbek"}, {"alias": "korean", "title": "Korean"}], "rating": 4.5, "coordinates": {"latitude": 40.6056042015553, "longitude": -74.0006862580776}, "transactions": ["pickup", "delivery"], "price": "$", "location": {"address1": "8611 19th Ave", "address2": "", "address3": "", "city": "Brooklyn", "zip_code": "11214", "country": "US", "state": "NY", "display_address": ["8611 19th Ave", "Brooklyn, NY 11214"]}, "phone": "+17182341940", "display_phone": "(718) 234-1940", "distance": 17295.06838342478}, {"id": "TcuWyuZAORVnQBPCMNbTgw", "alias": "beyond-sushi-new-york-4", "name": "Beyond Sushi", "image_url": "https://s3-media3.fl.yelpcdn.com/bphoto/Rb8rNbwY-jiWK89saTiYUw/o.jpg", "is_closed": false, "url": "https://www.yelp.com/biz/beyond-sushi-new-york-4?adjust_creative=5eN9XJbvGrZ_EWoOYuLppw&utm_campaign=yelp_api_v3&utm_medium=api_v3_business_search&utm_source=5eN9XJbvGrZ_EWoOYuLppw", "review_count": 672, "categories": [{"alias": "sushi", "title": "Sushi Bars"}, {"alias": "vegetarian", "title": "Vegetarian"}, {"alias": "kosher", "title": "Kosher"}], "rating": 4.5, "coordinates": {"latitude": 40.76331, "longitude": -73.97717}, "transactions": ["pickup", "delivery"], "price": "$$", "location": {"address1": "62 W 56th St", "address2": "", "address3": "", "city": "New York", "zip_code": "10019", "country": "US", "state": "NY", "display_address": ["62 W 56th St", "New York, NY 10019"]}, "phone": "+16469645097", "display_phone": "(646) 964-5097", "distance": 359.1072254954082}, {"id": "eIbKiQuExi12NcGeqMzQAw", "alias": "babas-pierogies-brooklyn", "name": "Baba's Pierogies", "image_url": "https://s3-media1.fl.yelpcdn.com/bphoto/LpSQQDCxYapJWk065wJjCQ/o.jpg", "is_closed": false, "url": "https://www.yelp.com/biz/babas-pierogies-brooklyn?adjust_creative=5eN9XJbvGrZ_EWoOYuLppw&utm_campaign=yelp_api_v3&utm_medium=api_v3_business_search&utm_source=5eN9XJbvGrZ_EWoOYuLppw", "review_count": 388, "categories": [{"alias": "modern_european", "title": "Modern European"}, {"alias": "slovakian", "title": "Slovakian"}], "rating": 4.5, "coordinates": {"latitude": 40.67687, "longitude": -73.98633}, "transactions": ["pickup", "delivery"], "price": "$$", "location": {"address1": "295 3rd Ave", "address2": "", "address3": "", "city": "Brooklyn", "zip_code": "11215", "country": "US", "state": "NY", "display_address": ["295 3rd Ave", "Brooklyn, NY 11215"]}, "phone": "+17182220777", "display_phone": "(718) 222-0777", "distance": 9294.793948878618}, {"id": "QRbD99HVMffeto7_Hq67CQ", "alias": "korzo-brooklyn", "name": "Korzo", "image_url": "https://s3-media4.fl.yelpcdn.com/bphoto/vWqpYCFk7XUNfunv5MHjXg/o.jpg", "is_closed": false, "url": "https://www.yelp.com/biz/korzo-brooklyn?adjust_creative=5eN9XJbvGrZ_EWoOYuLppw&utm_campaign=yelp_api_v3&utm_medium=api_v3_business_search&utm_source=5eN9XJbvGrZ_EWoOYuLppw", "review_count": 452, "categories": [{"alias": "modern_european", "title": "Modern European"}, {"alias": "burgers", "title": "Burgers"}], "rating": 4.0, "coordinates": {"latitude": 40.66199, "longitude": -73.99238}, "transactions": ["pickup"], "price": "$$", "location": {"address1": "667 5th Ave", "address2": "", "address3": "", "city": "Brooklyn", "zip_code": "11215", "country": "US", "state": "NY", "display_address": ["667 5th Ave", "Brooklyn, NY 11215"]}, "phone": "+17184991199", "display_phone": "(718) 499-1199", "distance": 10981.054431378341}, {"id": "oSpBTTBYy_sWDXiZF5CSdg", "alias": "pastrami-queen-new-york", "name": "Pastrami Queen", "image_url": "https://s3-media2.fl.yelpcdn.com/bphoto/9I3Zif_yGTSQpiPYHbfbww/o.jpg", "is_closed": false, "url": "https://www.yelp.com/biz/pastrami-queen-new-york?adjust_creative=5eN9XJbvGrZ_EWoOYuLppw&utm_campaign=yelp_api_v3&utm_medium=api_v3_business_search&utm_source=5eN9XJbvGrZ_EWoOYuLppw", "review_count": 509, "categories": [{"alias": "delis", "title": "Delis"}, {"alias": "kosher", "title": "Kosher"}, {"alias": "tradamerican", "title": "American (Traditional)"}], "rating": 3.5, "coordinates": {"latitude": 40.77437, "longitude": -73.95911}, "transactions": ["pickup", "delivery"], "price": "$$", "location": {"address1": "1125 Lexington Ave", "address2": "", "address3": "", "city": "New York", "zip_code": "10075", "country": "US", "state": "NY", "display_address": ["1125 Lexington Ave", "New York, NY 10075"]}, "phone": "+12127341500", "display_phone": "(212) 734-1500", "distance": 2268.4974901668224}, {"id": "80h4Y4OwRBzSZqH1-0i35g", "alias": "cafe-lily-brooklyn-2", "name": "Cafe Lily", "image_url": "https://s3-media3.fl.yelpcdn.com/bphoto/peMf8O8kr2M36j8MDxAbxA/o.jpg", "is_closed": false, "url": "https://www.yelp.com/biz/cafe-lily-brooklyn-2?adjust_creative=5eN9XJbvGrZ_EWoOYuLppw&utm_campaign=yelp_api_v3&utm_medium=api_v3_business_search&utm_source=5eN9XJbvGrZ_EWoOYuLppw", "review_count": 50, "categories": [{"alias": "russian", "title": "Russian"}, {"alias": "korean", "title": "Korean"}, {"alias": "uzbek", "title": "Uzbek"}], "rating": 4.5, "coordinates": {"latitude": 40.61002, "longitude": -73.98356}, "transactions": ["pickup"], "price": "$$", "location": {"address1": "42 Avenue O", "address2": "", "address3": "", "city": "Brooklyn", "zip_code": "11204", "country": "US", "state": "NY", "display_address": ["42 Avenue O", "Brooklyn, NY 11204"]}, "phone": "+17188725500", "display_phone": "(718) 872-5500", "distance": 16697.544125604996}, {"id": "xiwnLiNhSlEN4CDcurqsLQ", "alias": "2nd-ave-deli-new-york", "name": "2nd Ave Deli", "image_url": "https://s3-media4.fl.yelpcdn.com/bphoto/u9pAnwZlqehOgc1FV572eA/o.jpg", "is_closed": false, "url": "https://www.yelp.com/biz/2nd-ave-deli-new-york?adjust_creative=5eN9XJbvGrZ_EWoOYuLppw&utm_campaign=yelp_api_v3&utm_medium=api_v3_business_search&utm_source=5eN9XJbvGrZ_EWoOYuLppw", "review_count": 1220, "categories": [{"alias": "delis", "title": "Delis"}, {"alias": "kosher", "title": "Kosher"}, {"alias": "sandwiches", "title": "Sandwiches"}], "rating": 4.0, "coordinates": {"latitude": 40.74519, "longitude": -73.97918}, "transactions": ["pickup", "delivery"], "price": "$$", "location": {"address1": "162 E 33rd St", "address2": "", "address3": "", "city": "New York", "zip_code": "10016", "country": "US", "state": "NY", "display_address": ["162 E 33rd St", "New York, NY 10016"]}, "phone": "+12126899000", "display_phone": "(212) 689-9000", "distance": 1671.5213867870461}, {"id": "VwXHwFedp41olqrKNYKCWQ", "alias": "djerdan-burek-astoria-astoria", "name": "Djerdan Burek Astoria", "image_url": "https://s3-media3.fl.yelpcdn.com/bphoto/W8R1NsbPX0S3VieEfLLegg/o.jpg", "is_closed": false, "url": "https://www.yelp.com/biz/djerdan-burek-astoria-astoria?adjust_creative=5eN9XJbvGrZ_EWoOYuLppw&utm_campaign=yelp_api_v3&utm_medium=api_v3_business_search&utm_source=5eN9XJbvGrZ_EWoOYuLppw", "review_count": 133, "categories": [{"alias": "hotdogs", "title": "Fast Food"}, {"alias": "turkish", "title": "Turkish"}, {"alias": "modern_european", "title": "Modern European"}], "rating": 4.0, "coordinates": {"latitude": 40.762911, "longitude": -73.921069}, "transactions": ["pickup", "delivery"], "price": "$$", "location": {"address1": "3404 31st Ave", "address2": "", "address3": "", "city": "Astoria", "zip_code": "11106", "country": "US", "state": "NY", "display_address": ["3404 31st Ave", "Astoria, NY 11106"]}, "phone": "+17187212694", "display_phone": "(718) 721-2694", "distance": 4860.213456067637}, {"id": "zVO9C6gDAGuXPFkFuPOaVQ", "alias": "cafe-paris-brooklyn-3", "name": "Cafe Paris", "image_url": "https://s3-media3.fl.yelpcdn.com/bphoto/CNu-pOtVgDuNz1mgNJoU0Q/o.jpg", "is_closed": false, "url": "https://www.yelp.com/biz/cafe-paris-brooklyn-3?adjust_creative=5eN9XJbvGrZ_EWoOYuLppw&utm_campaign=yelp_api_v3&utm_medium=api_v3_business_search&utm_source=5eN9XJbvGrZ_EWoOYuLppw", "review_count": 27, "categories": [{"alias": "russian", "title": "Russian"}], "rating": 4.5, "coordinates": {"latitude": 40.60524, "longitude": -73.9974}, "transactions": [], "price": "$$", "location": {"address1": "8421 20th Ave", "address2": "", "address3": "", "city": "Brooklyn", "zip_code": "11214", "country": "US", "state": "NY", "display_address": ["8421 20th Ave", "Brooklyn, NY 11214"]}, "phone": "+17186460800", "display_phone": "(718) 646-0800", "distance": 17306.963104528895}, {"id": "5RCrpBnI_3UdabG1lieknA", "alias": "tandoori-food-and-bakery-rego-park", "name": "Tandoori Food & Bakery", "image_url": "https://s3-media3.fl.yelpcdn.com/bphoto/emp0N3ex8fT4MEmeCmE15w/o.jpg", "is_closed": false, "url": "https://www.yelp.com/biz/tandoori-food-and-bakery-rego-park?adjust_creative=5eN9XJbvGrZ_EWoOYuLppw&utm_campaign=yelp_api_v3&utm_medium=api_v3_business_search&utm_source=5eN9XJbvGrZ_EWoOYuLppw", "review_count": 65, "categories": [{"alias": "bakeries", "title": "Bakeries"}, {"alias": "uzbek", "title": "Uzbek"}], "rating": 4.0, "coordinates": {"latitude": 40.7325468388103, "longitude": -73.8561887462805}, "transactions": [], "price": "$$", "location": {"address1": "9904 63rd Rd", "address2": "", "address3": "", "city": "Rego Park", "zip_code": "11374", "country": "US", "state": "NY", "display_address": ["9904 63rd Rd", "Rego Park, NY 11374"]}, "phone": "+17188971071", "display_phone": "(718) 897-1071", "distance": 10753.259142442366}, {"id": "K5j_HFzkS5QAgX7cgIO8Gg", "alias": "dziupla-brooklyn", "name": "Dziupla", "image_url": "https://s3-media3.fl.yelpcdn.com/bphoto/hgGxK0tl175m5Cg5bOhCLA/o.jpg", "is_closed": false, "url": "https://www.yelp.com/biz/dziupla-brooklyn?adjust_creative=5eN9XJbvGrZ_EWoOYuLppw&utm_campaign=yelp_api_v3&utm_medium=api_v3_business_search&utm_source=5eN9XJbvGrZ_EWoOYuLppw", "review_count": 209, "categories": [{"alias": "polish", "title": "Polish"}], "rating": 4.0, "coordinates": {"latitude": 40.7174732, "longitude": -73.9581543}, "transactions": ["delivery", "pickup"], "price": "$$", "location": {"address1": "194 Bedford Ave", "address2": null, "address3": "", "city": "Brooklyn", "zip_code": "11249", "country": "US", "state": "NY", "display_address": ["194 Bedford Ave", "Brooklyn, NY 11249"]}, "phone": "+17183886194", "display_phone": "(718) 388-6194", "distance": 5052.34301431197}, {"id": "jaltLUsCUn_7psy_iSZ5fA", "alias": "salute-forest-hills-3", "name": "Salute", "image_url": "https://s3-media3.fl.yelpcdn.com/bphoto/JAHswe8qozTtFubAzu6A0Q/o.jpg", "is_closed": false, "url": "https://www.yelp.com/biz/salute-forest-hills-3?adjust_creative=5eN9XJbvGrZ_EWoOYuLppw&utm_campaign=yelp_api_v3&utm_medium=api_v3_business_search&utm_source=5eN9XJbvGrZ_EWoOYuLppw", "review_count": 99, "categories": [{"alias": "russian", "title": "Russian"}, {"alias": "uzbek", "title": "Uzbek"}], "rating": 3.5, "coordinates": {"latitude": 40.7334193, "longitude": -73.8496439}, "transactions": [], "price": "$$", "location": {"address1": "6361 108th St", "address2": "", "address3": "", "city": "Forest Hills", "zip_code": "11375", "country": "US", "state": "NY", "display_address": ["6361 108th St", "Forest Hills, NY 11375"]}, "phone": "+17182756860", "display_phone": "(718) 275-6860", "distance": 11268.073058946418}, {"id": "hLm1vXfAKuSOgAtBA-vO7w", "alias": "\u00e7ka-ka-q\u00ebllu-bronx", "name": "\u00c7KA KA Q\u00cbLLU", "image_url": "https://s3-media2.fl.yelpcdn.com/bphoto/zd9yYzhFx8KHopPTkGJKXg/o.jpg", "is_closed": false, "url": "https://www.yelp.com/biz/%C3%A7ka-ka-q%C3%ABllu-bronx?adjust_creative=5eN9XJbvGrZ_EWoOYuLppw&utm_campaign=yelp_api_v3&utm_medium=api_v3_business_search&utm_source=5eN9XJbvGrZ_EWoOYuLppw", "review_count": 73, "categories": [{"alias": "modern_european", "title": "Modern European"}], "rating": 4.5, "coordinates": {"latitude": 40.8538017786913, "longitude": -73.8882422081079}, "transactions": ["delivery", "pickup"], "price": "$$", "location": {"address1": "2321 Hughes Ave", "address2": "", "address3": null, "city": "Bronx", "zip_code": "10458", "country": "US", "state": "NY", "display_address": ["2321 Hughes Ave", "Bronx, NY 10458"]}, "phone": "+17189336194", "display_phone": "(718) 933-6194", "distance": 12884.12179542175}, {"id": "D6TdQlTfwOddaX91f87Cvw", "alias": "vstrecha-glatt-kosher-rego-park", "name": "Vstrecha Glatt Kosher", "image_url": "https://s3-media3.fl.yelpcdn.com/bphoto/13c44vOEPe5jI29L_Pl8pg/o.jpg", "is_closed": false, "url": "https://www.yelp.com/biz/vstrecha-glatt-kosher-rego-park?adjust_creative=5eN9XJbvGrZ_EWoOYuLppw&utm_campaign=yelp_api_v3&utm_medium=api_v3_business_search&utm_source=5eN9XJbvGrZ_EWoOYuLppw", "review_count": 10, "categories": [{"alias": "russian", "title": "Russian"}, {"alias": "kosher", "title": "Kosher"}], "rating": 4.0, "coordinates": {"latitude": 40.7271588, "longitude": -73.8548763}, "transactions": [], "price": "$$", "location": {"address1": "98-98 Queens Blvd", "address2": "", "address3": "", "city": "Rego Park", "zip_code": "11374", "country": "US", "state": "NY", "display_address": ["98-98 Queens Blvd", "Rego Park, NY 11374"]}, "phone": "+17182634444", "display_phone": "(718) 263-4444", "distance": 11044.338670149595}, {"id": "sP0fgiQ8Chd4F6sHUWE2kg", "alias": "nargila-grill-new-york-2", "name": "Nargila Grill", "image_url": "https://s3-media4.fl.yelpcdn.com/bphoto/5ttnOMYsvWDXeLMiBM93VA/o.jpg", "is_closed": false, "url": "https://www.yelp.com/biz/nargila-grill-new-york-2?adjust_creative=5eN9XJbvGrZ_EWoOYuLppw&utm_campaign=yelp_api_v3&utm_medium=api_v3_business_search&utm_source=5eN9XJbvGrZ_EWoOYuLppw", "review_count": 85, "categories": [{"alias": "kosher", "title": "Kosher"}, {"alias": "mideastern", "title": "Middle Eastern"}], "rating": 3.5, "coordinates": {"latitude": 40.7750129699707, "longitude": -73.9481506347656}, "transactions": ["delivery", "pickup"], "price": "$$", "location": {"address1": "1599 York Ave", "address2": "", "address3": "", "city": "New York", "zip_code": "10028", "country": "US", "state": "NY", "display_address": ["1599 York Ave", "New York, NY 10028"]}, "phone": "+12125353700", "display_phone": "(212) 535-3700", "distance": 3041.444574965535}, {"id": "OYeIasyGnl8DL8zgYVW3ow", "alias": "stix-kosher-restaurant-forest-hills", "name": "Stix Kosher Restaurant", "image_url": "https://s3-media4.fl.yelpcdn.com/bphoto/FJcS6_VJh79e8wI2y0HVWA/o.jpg", "is_closed": false, "url": "https://www.yelp.com/biz/stix-kosher-restaurant-forest-hills?adjust_creative=5eN9XJbvGrZ_EWoOYuLppw&utm_campaign=yelp_api_v3&utm_medium=api_v3_business_search&utm_source=5eN9XJbvGrZ_EWoOYuLppw", "review_count": 200, "categories": [{"alias": "kosher", "title": "Kosher"}, {"alias": "mideastern", "title": "Middle Eastern"}, {"alias": "uzbek", "title": "Uzbek"}], "rating": 4.0, "coordinates": {"latitude": 40.726556, "longitude": -73.851522}, "transactions": ["delivery", "pickup"], "price": "$$", "location": {"address1": "10115 Queens Blvd", "address2": "", "address3": "", "city": "Forest Hills", "zip_code": "11375", "country": "US", "state": "NY", "display_address": ["10115 Queens Blvd", "Forest Hills, NY 11375"]}, "phone": "+17182755566", "display_phone": "(718) 275-5566", "distance": 11333.208907085844}, {"id": "ieaNClVSSdz0WhkU85nFIg", "alias": "kazan-mangal-rego-park", "name": "Kazan Mangal", "image_url": "https://s3-media2.fl.yelpcdn.com/bphoto/h0rqXh1dbuZrmRbU6SNjqA/o.jpg", "is_closed": false, "url": "https://www.yelp.com/biz/kazan-mangal-rego-park?adjust_creative=5eN9XJbvGrZ_EWoOYuLppw&utm_campaign=yelp_api_v3&utm_medium=api_v3_business_search&utm_source=5eN9XJbvGrZ_EWoOYuLppw", "review_count": 46, "categories": [{"alias": "mideastern", "title": "Middle Eastern"}, {"alias": "uzbek", "title": "Uzbek"}, {"alias": "kosher", "title": "Kosher"}], "rating": 3.5, "coordinates": {"latitude": 40.7298185717963, "longitude": -73.8606026754145}, "transactions": [], "location": {"address1": "97-13 Queens Blvd", "address2": null, "address3": null, "city": "Rego Park", "zip_code": "11374", "country": "US", "state": "NY", "display_address": ["97-13 Queens Blvd", "Rego Park, NY 11374"]}, "phone": "+17189977779", "display_phone": "(718) 997-7779", "distance": 10491.469505760713}, {"id": "E2Pil7qZLKNdK0wuKzkFTA", "alias": "zabka-coffee-brooklyn", "name": "Zabka Coffee", "image_url": "https://s3-media1.fl.yelpcdn.com/bphoto/8p76soxwKa24yCDiFSPXTg/o.jpg", "is_closed": false, "url": "https://www.yelp.com/biz/zabka-coffee-brooklyn?adjust_creative=5eN9XJbvGrZ_EWoOYuLppw&utm_campaign=yelp_api_v3&utm_medium=api_v3_business_search&utm_source=5eN9XJbvGrZ_EWoOYuLppw", "review_count": 82, "categories": [{"alias": "coffee", "title": "Coffee & Tea"}, {"alias": "polish", "title": "Polish"}, {"alias": "breakfast_brunch", "title": "Breakfast & Brunch"}], "rating": 4.5, "coordinates": {"latitude": 40.68203, "longitude": -73.95004}, "transactions": ["delivery", "pickup"], "price": "$", "location": {"address1": "492 Nostrand Ave", "address2": null, "address3": "", "city": "Brooklyn", "zip_code": "11216", "country": "US", "state": "NY", "display_address": ["492 Nostrand Ave", "Brooklyn, NY 11216"]}, "phone": "+15185287809", "display_phone": "(518) 528-7809", "distance": 9020.431128906315}, {"id": "JDt51fIl-I17y7IExFSwFA", "alias": "kings-grill-brooklyn-3", "name": "Kings Grill", "image_url": "https://s3-media2.fl.yelpcdn.com/bphoto/8RDB68hCerPaYyy42lMqTA/o.jpg", "is_closed": false, "url": "https://www.yelp.com/biz/kings-grill-brooklyn-3?adjust_creative=5eN9XJbvGrZ_EWoOYuLppw&utm_campaign=yelp_api_v3&utm_medium=api_v3_business_search&utm_source=5eN9XJbvGrZ_EWoOYuLppw", "review_count": 14, "categories": [{"alias": "uzbek", "title": "Uzbek"}, {"alias": "hotdogs", "title": "Fast Food"}], "rating": 4.0, "coordinates": {"latitude": 40.6102117676736, "longitude": -73.9552694186568}, "transactions": ["delivery", "pickup"], "price": "$", "location": {"address1": "1807 Kings Hwy", "address2": "", "address3": null, "city": "Brooklyn", "zip_code": "11229", "country": "US", "state": "NY", "display_address": ["1807 Kings Hwy", "Brooklyn, NY 11229"]}, "phone": "+17187596522", "display_phone": "(718) 759-6522", "distance": 16794.195841201195}, {"id": "P5X8K61nDAlo8QrgCn-agQ", "alias": "zeppelin-hall-jersey-city", "name": "Zeppelin Hall", "image_url": "https://s3-media2.fl.yelpcdn.com/bphoto/VHbV8hfLEumrAjPkDlF-Ww/o.jpg", "is_closed": false, "url": "https://www.yelp.com/biz/zeppelin-hall-jersey-city?adjust_creative=5eN9XJbvGrZ_EWoOYuLppw&utm_campaign=yelp_api_v3&utm_medium=api_v3_business_search&utm_source=5eN9XJbvGrZ_EWoOYuLppw", "review_count": 858, "categories": [{"alias": "tradamerican", "title": "American (Traditional)"}, {"alias": "beergardens", "title": "Beer Gardens"}, {"alias": "german", "title": "German"}], "rating": 3.5, "coordinates": {"latitude": 40.715132087537, "longitude": -74.04667189924}, "transactions": ["delivery"], "price": "$$", "location": {"address1": "88 Liberty View Dr", "address2": "", "address3": "", "city": "Jersey City", "zip_code": "07302", "country": "US", "state": "NJ", "display_address": ["88 Liberty View Dr", "Jersey City, NJ 07302"]}, "phone": "+12017218888", "display_phone": "(201) 721-8888", "distance": 7623.609913026076}, {"id": "jskICA1De3cPZ6weiNoiEw", "alias": "cafe-arzu-forest-hills", "name": "Cafe Arzu", "image_url": "https://s3-media2.fl.yelpcdn.com/bphoto/3xem4mqAOm126qk0cXN36A/o.jpg", "is_closed": false, "url": "https://www.yelp.com/biz/cafe-arzu-forest-hills?adjust_creative=5eN9XJbvGrZ_EWoOYuLppw&utm_campaign=yelp_api_v3&utm_medium=api_v3_business_search&utm_source=5eN9XJbvGrZ_EWoOYuLppw", "review_count": 104, "categories": [{"alias": "russian", "title": "Russian"}, {"alias": "kosher", "title": "Kosher"}, {"alias": "uzbek", "title": "Uzbek"}], "rating": 3.5, "coordinates": {"latitude": 40.7266529649496, "longitude": -73.8522481173277}, "transactions": ["delivery", "pickup"], "price": "$$", "location": {"address1": "101-05 Queens Blvd", "address2": "", "address3": "", "city": "Forest Hills", "zip_code": "11375", "country": "US", "state": "NY", "display_address": ["101-05 Queens Blvd", "Forest Hills, NY 11375"]}, "phone": "+17188303335", "display_phone": "(718) 830-3335", "distance": 11308.340173078283}, {"id": "YD86aIr98KGSmqtSg_grBg", "alias": "chorsu-samarkanda-gravesend-2", "name": "Chorsu Samarkanda", "image_url": "https://s3-media4.fl.yelpcdn.com/bphoto/TSVeRbEz6ttEcxxEtcFMHg/o.jpg", "is_closed": false, "url": "https://www.yelp.com/biz/chorsu-samarkanda-gravesend-2?adjust_creative=5eN9XJbvGrZ_EWoOYuLppw&utm_campaign=yelp_api_v3&utm_medium=api_v3_business_search&utm_source=5eN9XJbvGrZ_EWoOYuLppw", "review_count": 28, "categories": [{"alias": "uzbek", "title": "Uzbek"}], "rating": 4.0, "coordinates": {"latitude": 40.6045074462891, "longitude": -73.9727783203125}, "transactions": ["delivery", "pickup"], "price": "$$", "location": {"address1": "461 Kings Hwy", "address2": "", "address3": "", "city": "Gravesend", "zip_code": "11223", "country": "US", "state": "NY", "display_address": ["461 Kings Hwy", "Gravesend, NY 11223"]}, "phone": "+17183394397", "display_phone": "(718) 339-4397", "distance": 17320.284808132677}, {"id": "sHRFCUDuvekILW4ZueTXMg", "alias": "polish-and-slavic-center-cafeteria-brooklyn", "name": "Polish & Slavic Center Cafeteria", "image_url": "https://s3-media1.fl.yelpcdn.com/bphoto/y16bhjhaHNOd_5OWMcO_Jg/o.jpg", "is_closed": false, "url": "https://www.yelp.com/biz/polish-and-slavic-center-cafeteria-brooklyn?adjust_creative=5eN9XJbvGrZ_EWoOYuLppw&utm_campaign=yelp_api_v3&utm_medium=api_v3_business_search&utm_source=5eN9XJbvGrZ_EWoOYuLppw", "review_count": 13, "categories": [{"alias": "polish", "title": "Polish"}, {"alias": "nonprofit", "title": "Community Service/Non-Profit"}], "rating": 4.5, "coordinates": {"latitude": 40.731197, "longitude": -73.953589}, "transactions": [], "price": "$$$$", "location": {"address1": "177 Kent St", "address2": "", "address3": "", "city": "Brooklyn", "zip_code": "11222", "country": "US", "state": "NY", "display_address": ["177 Kent St", "Brooklyn, NY 11222"]}, "phone": "+17183491033", "display_phone": "(718) 349-1033", "distance": 3843.286222256178}, {"id": "XcXDnNJc4S9HGzqzsG4ffw", "alias": "bens-kosher-delicatessen-restaurant-and-caterers-new-york", "name": "Ben's Kosher Delicatessen Restaurant & Caterers", "image_url": "https://s3-media1.fl.yelpcdn.com/bphoto/djwRz_fKaswu-CwPk9g9bA/o.jpg", "is_closed": false, "url": "https://www.yelp.com/biz/bens-kosher-delicatessen-restaurant-and-caterers-new-york?adjust_creative=5eN9XJbvGrZ_EWoOYuLppw&utm_campaign=yelp_api_v3&utm_medium=api_v3_business_search&utm_source=5eN9XJbvGrZ_EWoOYuLppw", "review_count": 659, "categories": [{"alias": "kosher", "title": "Kosher"}, {"alias": "delis", "title": "Delis"}, {"alias": "sandwiches", "title": "Sandwiches"}], "rating": 3.5, "coordinates": {"latitude": 40.75386, "longitude": -73.98935}, "transactions": ["delivery", "pickup"], "price": "$$", "location": {"address1": "209 W 38th St", "address2": "", "address3": "", "city": "New York", "zip_code": "10018", "country": "US", "state": "NY", "display_address": ["209 W 38th St", "New York, NY 10018"]}, "phone": "+12123982367", "display_phone": "(212) 398-2367", "distance": 1147.9910593700158}, {"id": "ht3DxDFrvMRSv9WeeX80NA", "alias": "lox-new-york", "name": "Lox", "image_url": "https://s3-media1.fl.yelpcdn.com/bphoto/2-TdT0Fa8MBHWThrXXCJYA/o.jpg", "is_closed": false, "url": "https://www.yelp.com/biz/lox-new-york?adjust_creative=5eN9XJbvGrZ_EWoOYuLppw&utm_campaign=yelp_api_v3&utm_medium=api_v3_business_search&utm_source=5eN9XJbvGrZ_EWoOYuLppw", "review_count": 49, "categories": [{"alias": "cafes", "title": "Cafes"}, {"alias": "kosher", "title": "Kosher"}], "rating": 4.0, "coordinates": {"latitude": 40.7055377733267, "longitude": -74.0180295074092}, "transactions": ["pickup"], "price": "$$", "location": {"address1": "36 Battery Pl", "address2": "", "address3": "Museum Of Jewish Heritage", "city": "New York", "zip_code": "10280", "country": "US", "state": "NY", "display_address": ["36 Battery Pl", "Museum Of Jewish Heritage", "New York, NY 10280"]}, "phone": "+16464374231", "display_phone": "(646) 437-4231", "distance": 6914.195353981789}, {"id": "PjvyaOrxN54QJSdZa7Wu6w", "alias": "mendys-new-york", "name": "Mendy's", "image_url": "https://s3-media4.fl.yelpcdn.com/bphoto/uELGHOUvN_87Pc85UXKoLg/o.jpg", "is_closed": false, "url": "https://www.yelp.com/biz/mendys-new-york?adjust_creative=5eN9XJbvGrZ_EWoOYuLppw&utm_campaign=yelp_api_v3&utm_medium=api_v3_business_search&utm_source=5eN9XJbvGrZ_EWoOYuLppw", "review_count": 83, "categories": [{"alias": "kosher", "title": "Kosher"}], "rating": 2.5, "coordinates": {"latitude": 40.74736, "longitude": -73.9816}, "transactions": ["delivery", "pickup"], "price": "$$", "location": {"address1": "61 E 34th St", "address2": "", "address3": "", "city": "New York", "zip_code": "10016", "country": "US", "state": "NY", "display_address": ["61 E 34th St", "New York, NY 10016"]}, "phone": "+12125761010", "display_phone": "(212) 576-1010", "distance": 1450.8560061142825}, {"id": "rZZRWEYLJZbF0OTmAgBYiA", "alias": "rondel-brooklyn", "name": "Rondel", "image_url": "https://s3-media2.fl.yelpcdn.com/bphoto/UuS8oRaJtLX2HBwM5U3Mpw/o.jpg", "is_closed": false, "url": "https://www.yelp.com/biz/rondel-brooklyn?adjust_creative=5eN9XJbvGrZ_EWoOYuLppw&utm_campaign=yelp_api_v3&utm_medium=api_v3_business_search&utm_source=5eN9XJbvGrZ_EWoOYuLppw", "review_count": 23, "categories": [{"alias": "ukrainian", "title": "Ukrainian"}, {"alias": "salad", "title": "Salad"}, {"alias": "seafood", "title": "Seafood"}], "rating": 4.5, "coordinates": {"latitude": 40.60828, "longitude": -73.9626}, "transactions": ["pickup"], "price": "$$", "location": {"address1": "2006 Coney Island Ave", "address2": null, "address3": "", "city": "Brooklyn", "zip_code": "11223", "country": "US", "state": "NY", "display_address": ["2006 Coney Island Ave", "Brooklyn, NY 11223"]}, "phone": "+13473719276", "display_phone": "(347) 371-9276", "distance": 16942.441152633397}, {"id": "GFzGPU82PvdnCBBz0jFmSA", "alias": "nadezhda-restaurant-forest-hills", "name": "Nadezhda Restaurant", "image_url": "https://s3-media2.fl.yelpcdn.com/bphoto/5uJB1TpxWligYzzX3GkTUQ/o.jpg", "is_closed": false, "url": "https://www.yelp.com/biz/nadezhda-restaurant-forest-hills?adjust_creative=5eN9XJbvGrZ_EWoOYuLppw&utm_campaign=yelp_api_v3&utm_medium=api_v3_business_search&utm_source=5eN9XJbvGrZ_EWoOYuLppw", "review_count": 12, "categories": [{"alias": "kosher", "title": "Kosher"}, {"alias": "russian", "title": "Russian"}, {"alias": "afghani", "title": "Afghan"}], "rating": 4.0, "coordinates": {"latitude": 40.7327028682273, "longitude": -73.8495482395547}, "transactions": ["delivery", "pickup"], "price": "$$", "location": {"address1": "64-06 108th St", "address2": "", "address3": "", "city": "Forest Hills", "zip_code": "11375", "country": "US", "state": "NY", "display_address": ["64-06 108th St", "Forest Hills, NY 11375"]}, "phone": "+17183806666", "display_phone": "(718) 380-6666", "distance": 11257.695013378216}, {"id": "ciIihWqiw5z8qwWlJBp5NA", "alias": "wolf-and-lamb-steakhouse-new-york", "name": "Wolf & Lamb Steakhouse", "image_url": "https://s3-media3.fl.yelpcdn.com/bphoto/OdDJ40RiIXyOs6ZyLlbYVw/o.jpg", "is_closed": false, "url": "https://www.yelp.com/biz/wolf-and-lamb-steakhouse-new-york?adjust_creative=5eN9XJbvGrZ_EWoOYuLppw&utm_campaign=yelp_api_v3&utm_medium=api_v3_business_search&utm_source=5eN9XJbvGrZ_EWoOYuLppw", "review_count": 176, "categories": [{"alias": "steak", "title": "Steakhouses"}, {"alias": "kosher", "title": "Kosher"}, {"alias": "tradamerican", "title": "American (Traditional)"}], "rating": 3.5, "coordinates": {"latitude": 40.75674, "longitude": -73.97712}, "transactions": ["delivery", "pickup"], "price": "$$$", "location": {"address1": "16 E 48th St", "address2": "", "address3": "", "city": "New York", "zip_code": "10017", "country": "US", "state": "NY", "display_address": ["16 E 48th St", "New York, NY 10017"]}, "phone": "+12123171950", "display_phone": "(212) 317-1950", "distance": 411.7655920265223}, {"id": "E8atCW6l6y1SVeEXbbXzEA", "alias": "sacred-chow-new-york", "name": "Sacred Chow", "image_url": "https://s3-media4.fl.yelpcdn.com/bphoto/kICk5dtsKe-xmAXKYbeyTA/o.jpg", "is_closed": false, "url": "https://www.yelp.com/biz/sacred-chow-new-york?adjust_creative=5eN9XJbvGrZ_EWoOYuLppw&utm_campaign=yelp_api_v3&utm_medium=api_v3_business_search&utm_source=5eN9XJbvGrZ_EWoOYuLppw", "review_count": 559, "categories": [{"alias": "vegetarian", "title": "Vegetarian"}, {"alias": "vegan", "title": "Vegan"}, {"alias": "kosher", "title": "Kosher"}], "rating": 4.0, "coordinates": {"latitude": 40.72959, "longitude": -73.99944}, "transactions": ["delivery", "pickup"], "price": "$$", "location": {"address1": "227 Sullivan St", "address2": "", "address3": "", "city": "New York", "zip_code": "10012", "country": "US", "state": "NY", "display_address": ["227 Sullivan St", "New York, NY 10012"]}, "phone": "+12123370863", "display_phone": "(212) 337-0863", "distance": 3834.5740374862226}, {"id": "tZinZdPH3p4BrJuuSYK2Kw", "alias": "kasbah-grill-and-sushi-restaurant-new-york", "name": "Kasbah Grill & Sushi Restaurant", "image_url": "https://s3-media2.fl.yelpcdn.com/bphoto/8h4kkuWfzDEBdQUblEVRww/o.jpg", "is_closed": false, "url": "https://www.yelp.com/biz/kasbah-grill-and-sushi-restaurant-new-york?adjust_creative=5eN9XJbvGrZ_EWoOYuLppw&utm_campaign=yelp_api_v3&utm_medium=api_v3_business_search&utm_source=5eN9XJbvGrZ_EWoOYuLppw", "review_count": 85, "categories": [{"alias": "kosher", "title": "Kosher"}, {"alias": "sushi", "title": "Sushi Bars"}, {"alias": "steak", "title": "Steakhouses"}], "rating": 3.0, "coordinates": {"latitude": 40.78786, "longitude": -73.97731}, "transactions": ["delivery", "pickup"], "price": "$$", "location": {"address1": "251 W 85th St", "address2": "", "address3": "", "city": "New York", "zip_code": "10024", "country": "US", "state": "NY", "display_address": ["251 W 85th St", "New York, NY 10024"]}, "phone": "+12124961500", "display_phone": "(212) 496-1500", "distance": 3089.81813118993}, {"id": "StN5iogEjup2MWAzwaGDig", "alias": "royal-warsaw-restaurant-elmwood-park", "name": "Royal Warsaw Restaurant", "image_url": "https://s3-media2.fl.yelpcdn.com/bphoto/LJyfS5gdpkjk4EsTE6M4wg/o.jpg", "is_closed": false, "url": "https://www.yelp.com/biz/royal-warsaw-restaurant-elmwood-park?adjust_creative=5eN9XJbvGrZ_EWoOYuLppw&utm_campaign=yelp_api_v3&utm_medium=api_v3_business_search&utm_source=5eN9XJbvGrZ_EWoOYuLppw", "review_count": 222, "categories": [{"alias": "polish", "title": "Polish"}, {"alias": "modern_european", "title": "Modern European"}, {"alias": "burgers", "title": "Burgers"}], "rating": 4.0, "coordinates": {"latitude": 40.89127, "longitude": -74.12705}, "transactions": ["delivery"], "price": "$$", "location": {"address1": "871 River Dr", "address2": "", "address3": "", "city": "Elmwood Park", "zip_code": "07407", "country": "US", "state": "NJ", "display_address": ["871 River Dr", "Elmwood Park, NJ 07407"]}, "phone": "+12017949277", "display_phone": "(201) 794-9277", "distance": 19204.281434975463}, {"id": "aTiVlP1PxzgrcRXFy7WnDQ", "alias": "tatra-haus-wallington", "name": "Tatra Haus", "image_url": "https://s3-media1.fl.yelpcdn.com/bphoto/cMKUqfruvxNIBRMbHJdv_Q/o.jpg", "is_closed": false, "url": "https://www.yelp.com/biz/tatra-haus-wallington?adjust_creative=5eN9XJbvGrZ_EWoOYuLppw&utm_campaign=yelp_api_v3&utm_medium=api_v3_business_search&utm_source=5eN9XJbvGrZ_EWoOYuLppw", "review_count": 24, "categories": [{"alias": "polish", "title": "Polish"}], "rating": 4.5, "coordinates": {"latitude": 40.85513, "longitude": -74.11315}, "transactions": ["delivery"], "price": "$$", "location": {"address1": "115 Main Ave", "address2": "", "address3": null, "city": "Wallington", "zip_code": "07057", "country": "US", "state": "NJ", "display_address": ["115 Main Ave", "Wallington, NJ 07057"]}, "phone": "+12013932400", "display_phone": "(201) 393-2400", "distance": 15487.078693396174}, {"id": "BLFJ4-JDT8XNmL_sIR1OJg", "alias": "polonia-bakery-passaic", "name": "Polonia Bakery", "image_url": "https://s3-media2.fl.yelpcdn.com/bphoto/hdE2-RVi0siISWf37ihkJg/o.jpg", "is_closed": false, "url": "https://www.yelp.com/biz/polonia-bakery-passaic?adjust_creative=5eN9XJbvGrZ_EWoOYuLppw&utm_campaign=yelp_api_v3&utm_medium=api_v3_business_search&utm_source=5eN9XJbvGrZ_EWoOYuLppw", "review_count": 9, "categories": [{"alias": "bakeries", "title": "Bakeries"}, {"alias": "donuts", "title": "Donuts"}, {"alias": "polish", "title": "Polish"}], "rating": 4.0, "coordinates": {"latitude": 40.866672, "longitude": -74.122622}, "transactions": [], "price": "$", "location": {"address1": "204 Monroe St", "address2": "", "address3": "", "city": "Passaic", "zip_code": "07055", "country": "US", "state": "NJ", "display_address": ["204 Monroe St", "Passaic, NJ 07055"]}, "phone": "+19734713485", "display_phone": "(973) 471-3485", "distance": 16947.980529704368}, {"id": "A3Avu_j2Zc0UCqVU2UBXKw", "alias": "argo-brooklyn", "name": "Argo", "image_url": "https://s3-media3.fl.yelpcdn.com/bphoto/rNEqB1JcT9F-7mwgCWp44Q/o.jpg", "is_closed": false, "url": "https://www.yelp.com/biz/argo-brooklyn?adjust_creative=5eN9XJbvGrZ_EWoOYuLppw&utm_campaign=yelp_api_v3&utm_medium=api_v3_business_search&utm_source=5eN9XJbvGrZ_EWoOYuLppw", "review_count": 29, "categories": [{"alias": "georgian", "title": "Georgian"}, {"alias": "russian", "title": "Russian"}, {"alias": "modern_european", "title": "Modern European"}], "rating": 4.0, "coordinates": {"latitude": 40.6088299, "longitude": -73.9618304}, "transactions": [], "price": "$$", "location": {"address1": "1985 Coney Island Ave", "address2": null, "address3": "", "city": "Brooklyn", "zip_code": "11223", "country": "US", "state": "NY", "display_address": ["1985 Coney Island Ave", "Brooklyn, NY 11223"]}, "phone": "+17185522242", "display_phone": "(718) 552-2242", "distance": 16891.810534175933}, {"id": "1LLjNpSiosgJyU9ZtxVDRQ", "alias": "brucha-caterer-truck-new-york", "name": "Brucha Caterer Truck", "image_url": "https://s3-media3.fl.yelpcdn.com/bphoto/Iy_yHlKUx0ltbbTJWghGdQ/o.jpg", "is_closed": false, "url": "https://www.yelp.com/biz/brucha-caterer-truck-new-york?adjust_creative=5eN9XJbvGrZ_EWoOYuLppw&utm_campaign=yelp_api_v3&utm_medium=api_v3_business_search&utm_source=5eN9XJbvGrZ_EWoOYuLppw", "review_count": 3, "categories": [{"alias": "foodstands", "title": "Food Stands"}, {"alias": "kosher", "title": "Kosher"}], "rating": 4.0, "coordinates": {"latitude": 40.7527287672926, "longitude": -73.9968063409926}, "transactions": [], "price": "$$", "location": {"address1": "9th Ave & 33rd St", "address2": "", "address3": "", "city": "New York", "zip_code": "10011", "country": "US", "state": "NY", "display_address": ["9th Ave & 33rd St", "New York, NY 10011"]}, "phone": "+18452064468", "display_phone": "(845) 206-4468", "distance": 1752.2555831925356}, {"id": "JdNzj7EGQLC9eqqw3SYBPg", "alias": "the-organic-grill-new-york-130", "name": "The Organic Grill", "image_url": "https://s3-media3.fl.yelpcdn.com/bphoto/WUN-rQZmUvO7c8UOA5BZUQ/o.jpg", "is_closed": false, "url": "https://www.yelp.com/biz/the-organic-grill-new-york-130?adjust_creative=5eN9XJbvGrZ_EWoOYuLppw&utm_campaign=yelp_api_v3&utm_medium=api_v3_business_search&utm_source=5eN9XJbvGrZ_EWoOYuLppw", "review_count": 441, "categories": [{"alias": "vegan", "title": "Vegan"}, {"alias": "gluten_free", "title": "Gluten-Free"}, {"alias": "kosher", "title": "Kosher"}], "rating": 4.0, "coordinates": {"latitude": 40.72737, "longitude": -73.98578}, "transactions": ["delivery", "pickup"], "price": "$$", "location": {"address1": "123 1st Ave", "address2": "", "address3": "", "city": "New York", "zip_code": "10003", "country": "US", "state": "NY", "display_address": ["123 1st Ave", "New York, NY 10003"]}, "phone": "+12124777177", "display_phone": "(212) 477-7177", "distance": 3702.2059025156254}, {"id": "0iCISI2oP9bkS54hy68Xsw", "alias": "rolfs-bar-and-restaurant-new-york", "name": "Rolf's Bar & Restaurant", "image_url": "https://s3-media2.fl.yelpcdn.com/bphoto/6hzjg8gf2B7Ob4A1_1nahw/o.jpg", "is_closed": false, "url": "https://www.yelp.com/biz/rolfs-bar-and-restaurant-new-york?adjust_creative=5eN9XJbvGrZ_EWoOYuLppw&utm_campaign=yelp_api_v3&utm_medium=api_v3_business_search&utm_source=5eN9XJbvGrZ_EWoOYuLppw", "review_count": 991, "categories": [{"alias": "german", "title": "German"}, {"alias": "bars", "title": "Bars"}], "rating": 2.5, "coordinates": {"latitude": 40.73803, "longitude": -73.98353}, "transactions": [], "price": "$$$", "location": {"address1": "281 3rd Ave", "address2": "", "address3": "", "city": "New York", "zip_code": "10010", "country": "US", "state": "NY", "display_address": ["281 3rd Ave", "New York, NY 10010"]}, "phone": "+12124774750", "display_phone": "(212) 477-4750", "distance": 2502.9672138873443}, {"id": "yKqYJe8CZgPDKJcbS2USfA", "alias": "tandir-express-kensington", "name": "Tandir Express", "image_url": "https://s3-media1.fl.yelpcdn.com/bphoto/JKnE9k-CIxRBze4zbga4Lg/o.jpg", "is_closed": false, "url": "https://www.yelp.com/biz/tandir-express-kensington?adjust_creative=5eN9XJbvGrZ_EWoOYuLppw&utm_campaign=yelp_api_v3&utm_medium=api_v3_business_search&utm_source=5eN9XJbvGrZ_EWoOYuLppw", "review_count": 29, "categories": [{"alias": "uzbek", "title": "Uzbek"}], "rating": 4.0, "coordinates": {"latitude": 40.6326229, "longitude": -73.9728522}, "transactions": ["delivery", "pickup"], "price": "$$", "location": {"address1": "3915 18th Ave", "address2": null, "address3": "", "city": "Kensington", "zip_code": "11218", "country": "US", "state": "NY", "display_address": ["3915 18th Ave", "Kensington, NY 11218"]}, "phone": "+19178938585", "display_phone": "(917) 893-8585", "distance": 14206.293833027576}, {"id": "KpE3EOfHNid9rTq06YxDQw", "alias": "2nd-ave-deli-new-york-2", "name": "2nd Ave Deli", "image_url": "https://s3-media4.fl.yelpcdn.com/bphoto/BhfQSd_e-fXVsrxL70ADJg/o.jpg", "is_closed": false, "url": "https://www.yelp.com/biz/2nd-ave-deli-new-york-2?adjust_creative=5eN9XJbvGrZ_EWoOYuLppw&utm_campaign=yelp_api_v3&utm_medium=api_v3_business_search&utm_source=5eN9XJbvGrZ_EWoOYuLppw", "review_count": 334, "categories": [{"alias": "delis", "title": "Delis"}, {"alias": "sandwiches", "title": "Sandwiches"}, {"alias": "kosher", "title": "Kosher"}], "rating": 3.5, "coordinates": {"latitude": 40.769568955816, "longitude": -73.954492775627}, "transactions": ["delivery", "pickup"], "price": "$$", "location": {"address1": "1442 1st Ave", "address2": "", "address3": "", "city": "New York", "zip_code": "10021", "country": "US", "state": "NY", "display_address": ["1442 1st Ave", "New York, NY 10021"]}, "phone": "+12127371700", "display_phone": "(212) 737-1700", "distance": 2273.7318100366174}, {"id": "Mvvv9yz7zc2ZDYcpKgvr0g", "alias": "liebmans-kosher-delicatessen-bronx", "name": "Liebman's Kosher Delicatessen", "image_url": "https://s3-media2.fl.yelpcdn.com/bphoto/M5so85U3aczsnYFuQ3mDeA/o.jpg", "is_closed": false, "url": "https://www.yelp.com/biz/liebmans-kosher-delicatessen-bronx?adjust_creative=5eN9XJbvGrZ_EWoOYuLppw&utm_campaign=yelp_api_v3&utm_medium=api_v3_business_search&utm_source=5eN9XJbvGrZ_EWoOYuLppw", "review_count": 273, "categories": [{"alias": "delis", "title": "Delis"}, {"alias": "kosher", "title": "Kosher"}], "rating": 4.0, "coordinates": {"latitude": 40.88548, "longitude": -73.90951}, "transactions": ["delivery", "pickup"], "price": "$$", "location": {"address1": "552 W 235th St", "address2": "", "address3": "", "city": "Bronx", "zip_code": "10463", "country": "US", "state": "NY", "display_address": ["552 W 235th St", "Bronx, NY 10463"]}, "phone": "+17185484534", "display_phone": "(718) 548-4534", "distance": 15085.528592559866}, {"id": "BqPCyiV0N8dwZ69KOUqO2w", "alias": "spritzenhaus-33-brooklyn", "name": "Spritzenhaus 33", "image_url": "https://s3-media3.fl.yelpcdn.com/bphoto/1BvTbCGI3QobRvnsPp3ihQ/o.jpg", "is_closed": false, "url": "https://www.yelp.com/biz/spritzenhaus-33-brooklyn?adjust_creative=5eN9XJbvGrZ_EWoOYuLppw&utm_campaign=yelp_api_v3&utm_medium=api_v3_business_search&utm_source=5eN9XJbvGrZ_EWoOYuLppw", "review_count": 530, "categories": [{"alias": "german", "title": "German"}, {"alias": "beergardens", "title": "Beer Gardens"}], "rating": 4.0, "coordinates": {"latitude": 40.7232908725574, "longitude": -73.9527179893456}, "transactions": [], "price": "$$", "location": {"address1": "33 Nassau Ave", "address2": "", "address3": "", "city": "Brooklyn", "zip_code": "11222", "country": "US", "state": "NY", "display_address": ["33 Nassau Ave", "Brooklyn, NY 11222"]}, "phone": "+13479874632", "display_phone": "(347) 987-4632", "distance": 4644.924384515315}, {"id": "nZ0Y8ngCxpY3xlz4f4pNTQ", "alias": "brooklyn-beet-company-brooklyn", "name": "Brooklyn Beet Company", "image_url": "https://s3-media1.fl.yelpcdn.com/bphoto/gfXAEcfRRGb41ngrmug9Hw/o.jpg", "is_closed": false, "url": "https://www.yelp.com/biz/brooklyn-beet-company-brooklyn?adjust_creative=5eN9XJbvGrZ_EWoOYuLppw&utm_campaign=yelp_api_v3&utm_medium=api_v3_business_search&utm_source=5eN9XJbvGrZ_EWoOYuLppw", "review_count": 429, "categories": [{"alias": "modern_european", "title": "Modern European"}], "rating": 4.5, "coordinates": {"latitude": 40.6333416, "longitude": -74.0268741}, "transactions": [], "price": "$$", "location": {"address1": "7205 3rd Ave", "address2": "", "address3": "", "city": "Brooklyn", "zip_code": "11209", "country": "US", "state": "NY", "display_address": ["7205 3rd Ave", "Brooklyn, NY 11209"]}, "phone": "+13474920020", "display_phone": "(347) 492-0020", "distance": 14685.264941672964}, {"id": "qstEY9-jMNR89G0uOTa_4A", "alias": "almaz-restaurant-brooklyn", "name": "Almaz Restaurant", "image_url": "https://s3-media2.fl.yelpcdn.com/bphoto/VGt99Aa-T0BqFgXNlwbvUw/o.jpg", "is_closed": false, "url": "https://www.yelp.com/biz/almaz-restaurant-brooklyn?adjust_creative=5eN9XJbvGrZ_EWoOYuLppw&utm_campaign=yelp_api_v3&utm_medium=api_v3_business_search&utm_source=5eN9XJbvGrZ_EWoOYuLppw", "review_count": 12, "categories": [{"alias": "russian", "title": "Russian"}, {"alias": "uzbek", "title": "Uzbek"}, {"alias": "modern_european", "title": "Modern European"}], "rating": 4.0, "coordinates": {"latitude": 40.605106, "longitude": -73.981887}, "transactions": ["delivery", "pickup"], "price": "$$", "location": {"address1": "238 Kings Hwy", "address2": null, "address3": "", "city": "Brooklyn", "zip_code": "11223", "country": "US", "state": "NY", "display_address": ["238 Kings Hwy", "Brooklyn, NY 11223"]}, "phone": "+13473124114", "display_phone": "(347) 312-4114", "distance": 17239.58620698278}, {"id": "8s5d0nkoNMgu9Oe066q_lg", "alias": "kosher-deluxe-new-york", "name": "Kosher Deluxe", "image_url": "https://s3-media2.fl.yelpcdn.com/bphoto/2-doGTGBuJUtgHRzYckxag/o.jpg", "is_closed": false, "url": "https://www.yelp.com/biz/kosher-deluxe-new-york?adjust_creative=5eN9XJbvGrZ_EWoOYuLppw&utm_campaign=yelp_api_v3&utm_medium=api_v3_business_search&utm_source=5eN9XJbvGrZ_EWoOYuLppw", "review_count": 104, "categories": [{"alias": "mideastern", "title": "Middle Eastern"}, {"alias": "hotdogs", "title": "Fast Food"}, {"alias": "kosher", "title": "Kosher"}], "rating": 3.0, "coordinates": {"latitude": 40.75622, "longitude": -73.98005}, "transactions": ["delivery", "pickup"], "price": "$$", "location": {"address1": "10 W 46th St", "address2": "", "address3": "", "city": "New York", "zip_code": "10036", "country": "US", "state": "NY", "display_address": ["10 W 46th St", "New York, NY 10036"]}, "phone": "+12128696699", "display_phone": "(212) 869-6699", "distance": 458.3861055434397}, {"id": "jNXFOOaOrQMDcLtJGo5MJA", "alias": "belka-european-delicatessen-brooklyn-7", "name": "Belka European Delicatessen", "image_url": "https://s3-media2.fl.yelpcdn.com/bphoto/b-n9TFA-KhGpv9FiXI6FGw/o.jpg", "is_closed": false, "url": "https://www.yelp.com/biz/belka-european-delicatessen-brooklyn-7?adjust_creative=5eN9XJbvGrZ_EWoOYuLppw&utm_campaign=yelp_api_v3&utm_medium=api_v3_business_search&utm_source=5eN9XJbvGrZ_EWoOYuLppw", "review_count": 13, "categories": [{"alias": "delis", "title": "Delis"}, {"alias": "importedfood", "title": "Imported Food"}, {"alias": "russian", "title": "Russian"}], "rating": 4.5, "coordinates": {"latitude": 40.60579, "longitude": -73.99662}, "transactions": ["pickup"], "price": "$", "location": {"address1": "8319 20th Ave", "address2": null, "address3": null, "city": "Brooklyn", "zip_code": "11214", "country": "US", "state": "NY", "display_address": ["8319 20th Ave", "Brooklyn, NY 11214"]}, "phone": "+17183330535", "display_phone": "(718) 333-0535", "distance": 17236.406149849543}, {"id": "ueuZOk-eIQj691FsizC7wg", "alias": "emir-palace-brooklyn", "name": "Emir Palace", "image_url": "https://s3-media2.fl.yelpcdn.com/bphoto/NMcZyI9f1dHp8hQSqj5dDQ/o.jpg", "is_closed": false, "url": "https://www.yelp.com/biz/emir-palace-brooklyn?adjust_creative=5eN9XJbvGrZ_EWoOYuLppw&utm_campaign=yelp_api_v3&utm_medium=api_v3_business_search&utm_source=5eN9XJbvGrZ_EWoOYuLppw", "review_count": 13, "categories": [{"alias": "russian", "title": "Russian"}, {"alias": "uzbek", "title": "Uzbek"}, {"alias": "mideastern", "title": "Middle Eastern"}], "rating": 3.0, "coordinates": {"latitude": 40.6318092, "longitude": -73.9755707}, "transactions": ["delivery", "pickup"], "price": "$$$", "location": {"address1": "4210 18th Ave", "address2": null, "address3": "", "city": "Brooklyn", "zip_code": "11218", "country": "US", "state": "NY", "display_address": ["4210 18th Ave", "Brooklyn, NY 11218"]}, "phone": "+17184310007", "display_phone": "(718) 431-0007", "distance": 14277.247123505636}, {"id": "_OzfOh1aJM4PFCG-qpVknQ", "alias": "omonia-cafe-astoria-astoria", "name": "Omonia Cafe - Astoria", "image_url": "https://s3-media1.fl.yelpcdn.com/bphoto/wfLsR5V-v2OMMYkelhW0sQ/o.jpg", "is_closed": false, "url": "https://www.yelp.com/biz/omonia-cafe-astoria-astoria?adjust_creative=5eN9XJbvGrZ_EWoOYuLppw&utm_campaign=yelp_api_v3&utm_medium=api_v3_business_search&utm_source=5eN9XJbvGrZ_EWoOYuLppw", "review_count": 641, "categories": [{"alias": "bakeries", "title": "Bakeries"}, {"alias": "bars", "title": "Bars"}, {"alias": "modern_european", "title": "Modern European"}], "rating": 3.0, "coordinates": {"latitude": 40.7611121, "longitude": -73.9240205}, "transactions": ["delivery", "pickup"], "price": "$$", "location": {"address1": "32-20 Broadway", "address2": null, "address3": null, "city": "Astoria", "zip_code": "11106", "country": "US", "state": "NY", "display_address": ["32-20 Broadway", "Astoria, NY 11106"]}, "phone": "+17182746650", "display_phone": "(718) 274-6650", "distance": 4589.584539065541}, {"id": "zZWcEsNq4ckhlf9XWd1OYQ", "alias": "gayanas-bakery-cafe-brooklyn", "name": "Gayana's Bakery Cafe", "image_url": "https://s3-media2.fl.yelpcdn.com/bphoto/THiPz7Uld0KKIeDFm-6k1Q/o.jpg", "is_closed": false, "url": "https://www.yelp.com/biz/gayanas-bakery-cafe-brooklyn?adjust_creative=5eN9XJbvGrZ_EWoOYuLppw&utm_campaign=yelp_api_v3&utm_medium=api_v3_business_search&utm_source=5eN9XJbvGrZ_EWoOYuLppw", "review_count": 9, "categories": [{"alias": "russian", "title": "Russian"}, {"alias": "bakeries", "title": "Bakeries"}], "rating": 4.0, "coordinates": {"latitude": 40.6357856, "longitude": -73.9744622}, "transactions": [], "price": "$", "location": {"address1": "418 Ditmas Ave", "address2": "", "address3": "", "city": "Brooklyn", "zip_code": "11218", "country": "US", "state": "NY", "display_address": ["418 Ditmas Ave", "Brooklyn, NY 11218"]}, "phone": "+17189753870", "display_phone": "(718) 975-3870", "distance": 13837.088916992549}, {"id": "19o6iblcJvz2hdPouYhXgg", "alias": "zum-stammtisch-glendale", "name": "Zum Stammtisch", "image_url": "https://s3-media4.fl.yelpcdn.com/bphoto/OAI9b7m-P32jNr_hsCE9yQ/o.jpg", "is_closed": false, "url": "https://www.yelp.com/biz/zum-stammtisch-glendale?adjust_creative=5eN9XJbvGrZ_EWoOYuLppw&utm_campaign=yelp_api_v3&utm_medium=api_v3_business_search&utm_source=5eN9XJbvGrZ_EWoOYuLppw", "review_count": 455, "categories": [{"alias": "german", "title": "German"}], "rating": 4.0, "coordinates": {"latitude": 40.7017618, "longitude": -73.8813408}, "transactions": [], "price": "$$", "location": {"address1": "6946 Myrtle Ave", "address2": "", "address3": "", "city": "Glendale", "zip_code": "11385", "country": "US", "state": "NY", "display_address": ["6946 Myrtle Ave", "Glendale, NY 11385"]}, "phone": "+17183863014", "display_phone": "(718) 386-3014", "distance": 10467.333652726671}, {"id": "n8sDrOo5oOlhTS7eYkiZpA", "alias": "christinas-brooklyn", "name": "Christina's", "image_url": "https://s3-media4.fl.yelpcdn.com/bphoto/te02p8AeMSNxNCOtBI_ftw/o.jpg", "is_closed": false, "url": "https://www.yelp.com/biz/christinas-brooklyn?adjust_creative=5eN9XJbvGrZ_EWoOYuLppw&utm_campaign=yelp_api_v3&utm_medium=api_v3_business_search&utm_source=5eN9XJbvGrZ_EWoOYuLppw", "review_count": 147, "categories": [{"alias": "polish", "title": "Polish"}], "rating": 3.5, "coordinates": {"latitude": 40.7291, "longitude": -73.95406}, "transactions": [], "price": "$$", "location": {"address1": "853 Manhattan Ave", "address2": "", "address3": "", "city": "Brooklyn", "zip_code": "11222", "country": "US", "state": "NY", "display_address": ["853 Manhattan Ave", "Brooklyn, NY 11222"]}, "phone": "+17183834382", "display_phone": "(718) 383-4382", "distance": 4027.417803806325}, {"id": "F622poZMX_mk1eoSoUOyaw", "alias": "the-biergarten-at-the-standard-high-line-new-york", "name": "The Biergarten at The Standard, High Line", "image_url": "https://s3-media2.fl.yelpcdn.com/bphoto/9AcvY5SfDQiodH2glL0KBA/o.jpg", "is_closed": false, "url": "https://www.yelp.com/biz/the-biergarten-at-the-standard-high-line-new-york?adjust_creative=5eN9XJbvGrZ_EWoOYuLppw&utm_campaign=yelp_api_v3&utm_medium=api_v3_business_search&utm_source=5eN9XJbvGrZ_EWoOYuLppw", "review_count": 877, "categories": [{"alias": "bars", "title": "Bars"}, {"alias": "german", "title": "German"}, {"alias": "pretzels", "title": "Pretzels"}], "rating": 3.5, "coordinates": {"latitude": 40.740799, "longitude": -74.007907}, "transactions": [], "price": "$$", "location": {"address1": "848 Washington St", "address2": "", "address3": "", "city": "New York", "zip_code": "10014", "country": "US", "state": "NY", "display_address": ["848 Washington St", "New York, NY 10014"]}, "phone": "+12126454100", "display_phone": "(212) 645-4100", "distance": 3290.1822077706975}, {"id": "HJg9TbpyWvb6-AFPdb7NCA", "alias": "king-new-york-3", "name": "King", "image_url": "https://s3-media2.fl.yelpcdn.com/bphoto/DoXJ6Ze_6wbtVk98tb9nmA/o.jpg", "is_closed": false, "url": "https://www.yelp.com/biz/king-new-york-3?adjust_creative=5eN9XJbvGrZ_EWoOYuLppw&utm_campaign=yelp_api_v3&utm_medium=api_v3_business_search&utm_source=5eN9XJbvGrZ_EWoOYuLppw", "review_count": 157, "categories": [{"alias": "modern_european", "title": "Modern European"}, {"alias": "italian", "title": "Italian"}, {"alias": "french", "title": "French"}], "rating": 3.5, "coordinates": {"latitude": 40.7275, "longitude": -74.00346}, "transactions": [], "price": "$$$", "location": {"address1": "18 King St", "address2": null, "address3": "", "city": "New York", "zip_code": "10014", "country": "US", "state": "NY", "display_address": ["18 King St", "New York, NY 10014"]}, "phone": "+19178251618", "display_phone": "(917) 825-1618", "distance": 4195.359710851956}, {"id": "6-Nv7PSLqGDpU4FhNPuw5g", "alias": "trio-restaurant-fresh-meadows-2", "name": "Trio Restaurant", "image_url": "https://s3-media2.fl.yelpcdn.com/bphoto/yGX4f7n0CJ720KuqHKxqoA/o.jpg", "is_closed": false, "url": "https://www.yelp.com/biz/trio-restaurant-fresh-meadows-2?adjust_creative=5eN9XJbvGrZ_EWoOYuLppw&utm_campaign=yelp_api_v3&utm_medium=api_v3_business_search&utm_source=5eN9XJbvGrZ_EWoOYuLppw", "review_count": 19, "categories": [{"alias": "kosher", "title": "Kosher"}, {"alias": "russian", "title": "Russian"}, {"alias": "mideastern", "title": "Middle Eastern"}], "rating": 3.5, "coordinates": {"latitude": 40.7273865532146, "longitude": -73.7861970413882}, "transactions": ["delivery", "pickup"], "price": "$$", "location": {"address1": "18134 Union Tpke", "address2": "", "address3": "", "city": "Fresh Meadows", "zip_code": "11366", "country": "US", "state": "NY", "display_address": ["18134 Union Tpke", "Fresh Meadows, NY 11366"]}, "phone": "+17183743162", "display_phone": "(718) 374-3162", "distance": 16606.7755408574}, {"id": "KY9HMKk4kl6uFz_6fiG1Gg", "alias": "polonica-restaurant-brooklyn", "name": "Polonica Restaurant", "image_url": "https://s3-media1.fl.yelpcdn.com/bphoto/7kFC9XYyTk-0cHbdHL4iQA/o.jpg", "is_closed": false, "url": "https://www.yelp.com/biz/polonica-restaurant-brooklyn?adjust_creative=5eN9XJbvGrZ_EWoOYuLppw&utm_campaign=yelp_api_v3&utm_medium=api_v3_business_search&utm_source=5eN9XJbvGrZ_EWoOYuLppw", "review_count": 180, "categories": [{"alias": "polish", "title": "Polish"}, {"alias": "tradamerican", "title": "American (Traditional)"}], "rating": 4.5, "coordinates": {"latitude": 40.62546, "longitude": -74.02995}, "transactions": ["delivery", "pickup"], "price": "$$", "location": {"address1": "8303 3rd Ave", "address2": "", "address3": "", "city": "Brooklyn", "zip_code": "11209", "country": "US", "state": "NY", "display_address": ["8303 3rd Ave", "Brooklyn, NY 11209"]}, "phone": "+17186305805", "display_phone": "(718) 630-5805", "distance": 15597.475913728367}, {"id": "OHd10z7zMp_nXeskyVkG4Q", "alias": "asia-restaurant-brooklyn-2", "name": "Asia Restaurant", "image_url": "https://s3-media3.fl.yelpcdn.com/bphoto/_F9i1R4lF8TyfHv_Ms_hNQ/o.jpg", "is_closed": false, "url": "https://www.yelp.com/biz/asia-restaurant-brooklyn-2?adjust_creative=5eN9XJbvGrZ_EWoOYuLppw&utm_campaign=yelp_api_v3&utm_medium=api_v3_business_search&utm_source=5eN9XJbvGrZ_EWoOYuLppw", "review_count": 35, "categories": [{"alias": "russian", "title": "Russian"}, {"alias": "steak", "title": "Steakhouses"}], "rating": 4.0, "coordinates": {"latitude": 40.63695, "longitude": -73.9944694}, "transactions": ["delivery", "pickup"], "price": "$$", "location": {"address1": "4813 New Utrecht Ave", "address2": "", "address3": "", "city": "Brooklyn", "zip_code": "11219", "country": "US", "state": "NY", "display_address": ["4813 New Utrecht Ave", "Brooklyn, NY 11219"]}, "phone": "+17189723434", "display_phone": "(718) 972-3434", "distance": 13772.37117992987}, {"id": "Lq_0x1NFNj68jYrhdt1yVQ", "alias": "mr-broadway-new-york", "name": "Mr Broadway", "image_url": "https://s3-media4.fl.yelpcdn.com/bphoto/UU8ILIRWr4sgSSPk62T63g/o.jpg", "is_closed": false, "url": "https://www.yelp.com/biz/mr-broadway-new-york?adjust_creative=5eN9XJbvGrZ_EWoOYuLppw&utm_campaign=yelp_api_v3&utm_medium=api_v3_business_search&utm_source=5eN9XJbvGrZ_EWoOYuLppw", "review_count": 281, "categories": [{"alias": "kosher", "title": "Kosher"}, {"alias": "mediterranean", "title": "Mediterranean"}, {"alias": "catering", "title": "Caterers"}], "rating": 2.5, "coordinates": {"latitude": 40.75236, "longitude": -73.98724}, "transactions": ["delivery", "pickup"], "price": "$$", "location": {"address1": "1372 Broadway", "address2": "", "address3": "", "city": "New York", "zip_code": "10018", "country": "US", "state": "NY", "display_address": ["1372 Broadway", "New York, NY 10018"]}, "phone": "+12129212152", "display_phone": "(212) 921-2152", "distance": 1134.6869401557317}, {"id": "Z0TxOufkowjm-lNX5lNCjg", "alias": "krakus-restaurant-wallington", "name": "Krakus Restaurant", "image_url": "https://s3-media4.fl.yelpcdn.com/bphoto/HnERxeB3aus2t7p2zAMFvw/o.jpg", "is_closed": false, "url": "https://www.yelp.com/biz/krakus-restaurant-wallington?adjust_creative=5eN9XJbvGrZ_EWoOYuLppw&utm_campaign=yelp_api_v3&utm_medium=api_v3_business_search&utm_source=5eN9XJbvGrZ_EWoOYuLppw", "review_count": 27, "categories": [{"alias": "polish", "title": "Polish"}], "rating": 4.0, "coordinates": {"latitude": 40.85475, "longitude": -74.10867}, "transactions": ["delivery"], "price": "$", "location": {"address1": "208 Main Ave", "address2": "", "address3": "", "city": "Wallington", "zip_code": "07057", "country": "US", "state": "NJ", "display_address": ["208 Main Ave", "Wallington, NJ 07057"]}, "phone": "+19737791922", "display_phone": "(973) 779-1922", "distance": 15179.554941947084}, {"id": "Uc2RN5pw1tsPI3uIqJfw1Q", "alias": "cafe-28-brooklyn", "name": "Cafe 28", "image_url": "https://s3-media2.fl.yelpcdn.com/bphoto/On178ty02GLZaogS-T2teQ/o.jpg", "is_closed": false, "url": "https://www.yelp.com/biz/cafe-28-brooklyn?adjust_creative=5eN9XJbvGrZ_EWoOYuLppw&utm_campaign=yelp_api_v3&utm_medium=api_v3_business_search&utm_source=5eN9XJbvGrZ_EWoOYuLppw", "review_count": 9, "categories": [{"alias": "kosher", "title": "Kosher"}], "rating": 4.0, "coordinates": {"latitude": 40.7039499338182, "longitude": -73.9485501497984}, "transactions": ["delivery", "pickup"], "price": "$", "location": {"address1": "28 Throop Ave", "address2": "", "address3": null, "city": "Brooklyn", "zip_code": "11206", "country": "US", "state": "NY", "display_address": ["28 Throop Ave", "Brooklyn, NY 11206"]}, "phone": "+17189422828", "display_phone": "(718) 942-2828", "distance": 6746.168018097469}, {"id": "LuLMfTnGtiz6U87orjXOPA", "alias": "rokhat-restaurant-queens", "name": "Rokhat Restaurant", "image_url": "https://s3-media4.fl.yelpcdn.com/bphoto/ojx-uLtijaGPf-hw9w36Bw/o.jpg", "is_closed": false, "url": "https://www.yelp.com/biz/rokhat-restaurant-queens?adjust_creative=5eN9XJbvGrZ_EWoOYuLppw&utm_campaign=yelp_api_v3&utm_medium=api_v3_business_search&utm_source=5eN9XJbvGrZ_EWoOYuLppw", "review_count": 17, "categories": [{"alias": "kosher", "title": "Kosher"}], "rating": 4.0, "coordinates": {"latitude": 40.7258561, "longitude": -73.8594174}, "transactions": [], "price": "$", "location": {"address1": "65-35 Austin St", "address2": "", "address3": null, "city": "Queens", "zip_code": "11374", "country": "US", "state": "NY", "display_address": ["65-35 Austin St", "Queens, NY 11374"]}, "phone": "+13472423087", "display_phone": "(347) 242-3087", "distance": 10719.322059200702}, {"id": "OEU93-RBwaDKZmQHFdQqew", "alias": "grill-house-queens", "name": "Grill House", "image_url": "https://s3-media2.fl.yelpcdn.com/bphoto/Y9K2GIHUbm9WEbWRa1NFrw/o.jpg", "is_closed": false, "url": "https://www.yelp.com/biz/grill-house-queens?adjust_creative=5eN9XJbvGrZ_EWoOYuLppw&utm_campaign=yelp_api_v3&utm_medium=api_v3_business_search&utm_source=5eN9XJbvGrZ_EWoOYuLppw", "review_count": 1, "categories": [{"alias": "kosher", "title": "Kosher"}], "rating": 5.0, "coordinates": {"latitude": 40.73009, "longitude": -73.77885}, "transactions": ["pickup", "delivery"], "location": {"address1": "190-11 Union Turnpike", "address2": "", "address3": null, "city": "Queens", "zip_code": "11366", "country": "US", "state": "NY", "display_address": ["190-11 Union Turnpike", "Queens, NY 11366"]}, "phone": "+17187401675", "display_phone": "(718) 740-1675", "distance": 17139.02324738528}, {"id": "lNV-bBLb9iTFCmbeGakwGw", "alias": "gottliebs-restaurant-brooklyn-14", "name": "Gottlieb's Restaurant", "image_url": "https://s3-media2.fl.yelpcdn.com/bphoto/nqHAR6xsr-81E7AoI5Z4Yg/o.jpg", "is_closed": false, "url": "https://www.yelp.com/biz/gottliebs-restaurant-brooklyn-14?adjust_creative=5eN9XJbvGrZ_EWoOYuLppw&utm_campaign=yelp_api_v3&utm_medium=api_v3_business_search&utm_source=5eN9XJbvGrZ_EWoOYuLppw", "review_count": 65, "categories": [{"alias": "kosher", "title": "Kosher"}, {"alias": "delis", "title": "Delis"}], "rating": 3.5, "coordinates": {"latitude": 40.7077128, "longitude": -73.9611326}, "transactions": ["pickup", "delivery"], "price": "$$", "location": {"address1": "352 Roebling St", "address2": "", "address3": "", "city": "Brooklyn", "zip_code": "11211", "country": "US", "state": "NY", "display_address": ["352 Roebling St", "Brooklyn, NY 11211"]}, "phone": "+17183846612", "display_phone": "(718) 384-6612", "distance": 6018.57453581807}, {"id": "TOaQzGPAIQWQUIXi4CPnbA", "alias": "radegast-hall-and-biergarten-brooklyn", "name": "Radegast Hall and Biergarten", "image_url": "https://s3-media3.fl.yelpcdn.com/bphoto/oRz8RIp-ZwYgCWTAiI5LBw/o.jpg", "is_closed": false, "url": "https://www.yelp.com/biz/radegast-hall-and-biergarten-brooklyn?adjust_creative=5eN9XJbvGrZ_EWoOYuLppw&utm_campaign=yelp_api_v3&utm_medium=api_v3_business_search&utm_source=5eN9XJbvGrZ_EWoOYuLppw", "review_count": 1328, "categories": [{"alias": "pubs", "title": "Pubs"}, {"alias": "german", "title": "German"}, {"alias": "venues", "title": "Venues & Event Spaces"}], "rating": 4.0, "coordinates": {"latitude": 40.716641, "longitude": -73.961498}, "transactions": [], "price": "$$", "location": {"address1": "113 N 3rd St", "address2": "", "address3": "", "city": "Brooklyn", "zip_code": "11249", "country": "US", "state": "NY", "display_address": ["113 N 3rd St", "Brooklyn, NY 11249"]}, "phone": "+17189633973", "display_phone": "(718) 963-3973", "distance": 5052.513777615785}, {"id": "g_fetZwKrIdhd-RdZBZkdQ", "alias": "aziza-2-cafe-brooklyn-2", "name": "Aziza 2 cafe", "image_url": "https://s3-media4.fl.yelpcdn.com/bphoto/GgManI-cn6GCOJDABftZ1g/o.jpg", "is_closed": false, "url": "https://www.yelp.com/biz/aziza-2-cafe-brooklyn-2?adjust_creative=5eN9XJbvGrZ_EWoOYuLppw&utm_campaign=yelp_api_v3&utm_medium=api_v3_business_search&utm_source=5eN9XJbvGrZ_EWoOYuLppw", "review_count": 2, "categories": [{"alias": "uzbek", "title": "Uzbek"}], "rating": 1.5, "coordinates": {"latitude": 40.60822, "longitude": -73.96184}, "transactions": ["pickup", "delivery"], "location": {"address1": "2013 Coney Island", "address2": null, "address3": "", "city": "Brooklyn", "zip_code": "11223", "country": "US", "state": "NY", "display_address": ["2013 Coney Island", "Brooklyn, NY 11223"]}, "phone": "+13473125346", "display_phone": "(347) 312-5346", "distance": 16959.40778149131}, {"id": "1thBGawoqRUHqCfQMZycYQ", "alias": "s-and-s-cheesecake-bronx", "name": "S&S Cheesecake", "image_url": "https://s3-media4.fl.yelpcdn.com/bphoto/Mt0wsY5qbFwIwy524-jHZg/o.jpg", "is_closed": false, "url": "https://www.yelp.com/biz/s-and-s-cheesecake-bronx?adjust_creative=5eN9XJbvGrZ_EWoOYuLppw&utm_campaign=yelp_api_v3&utm_medium=api_v3_business_search&utm_source=5eN9XJbvGrZ_EWoOYuLppw", "review_count": 178, "categories": [{"alias": "desserts", "title": "Desserts"}, {"alias": "bakeries", "title": "Bakeries"}, {"alias": "kosher", "title": "Kosher"}], "rating": 4.5, "coordinates": {"latitude": 40.8847182244062, "longitude": -73.8995528966188}, "transactions": ["pickup"], "price": "$$", "location": {"address1": "222 W 238th St", "address2": null, "address3": "", "city": "Bronx", "zip_code": "10463", "country": "US", "state": "NY", "display_address": ["222 W 238th St", "Bronx, NY 10463"]}, "phone": "+17185493888", "display_phone": "(718) 549-3888", "distance": 15341.652944001995}, {"id": "_dCaASKNPttcQZDmWy5HBw", "alias": "turquoise-kosher-fish-restaurant-fresh-meadows", "name": "Turquoise Kosher Fish Restaurant", "image_url": "https://s3-media2.fl.yelpcdn.com/bphoto/zMuEiq_annqz3Wb3Sv1NDA/o.jpg", "is_closed": false, "url": "https://www.yelp.com/biz/turquoise-kosher-fish-restaurant-fresh-meadows?adjust_creative=5eN9XJbvGrZ_EWoOYuLppw&utm_campaign=yelp_api_v3&utm_medium=api_v3_business_search&utm_source=5eN9XJbvGrZ_EWoOYuLppw", "review_count": 44, "categories": [{"alias": "seafood", "title": "Seafood"}, {"alias": "kosher", "title": "Kosher"}], "rating": 4.0, "coordinates": {"latitude": 40.7298105, "longitude": -73.7797042}, "transactions": [], "price": "$$", "location": {"address1": "189-23 Union Tpke", "address2": "", "address3": "", "city": "Fresh Meadows", "zip_code": "11366", "country": "US", "state": "NY", "display_address": ["189-23 Union Tpke", "Fresh Meadows, NY 11366"]}, "phone": "+17187767775", "display_phone": "(718) 776-7775", "distance": 17083.94987264642}, {"id": "2aKNwli0mtkl8aC2s1wrZg", "alias": "ganey-orly-queens", "name": "Ganey Orly", "image_url": "https://s3-media3.fl.yelpcdn.com/bphoto/uC97Ncr1yrGiw3NXNwoA7Q/o.jpg", "is_closed": false, "url": "https://www.yelp.com/biz/ganey-orly-queens?adjust_creative=5eN9XJbvGrZ_EWoOYuLppw&utm_campaign=yelp_api_v3&utm_medium=api_v3_business_search&utm_source=5eN9XJbvGrZ_EWoOYuLppw", "review_count": 27, "categories": [{"alias": "kosher", "title": "Kosher"}, {"alias": "mideastern", "title": "Middle Eastern"}], "rating": 4.5, "coordinates": {"latitude": 40.728567, "longitude": -73.854745}, "transactions": [], "price": "$$", "location": {"address1": "65-37 99th St", "address2": "", "address3": "", "city": "Queens", "zip_code": "11374", "country": "US", "state": "NY", "display_address": ["65-37 99th St", "Queens, NY 11374"]}, "phone": "+17184591638", "display_phone": "(718) 459-1638", "distance": 11003.59282697953}, {"id": "HygCKfQcUKuTD0gAyvfbTQ", "alias": "knish-nosh-rego-park", "name": "Knish Nosh", "image_url": "https://s3-media1.fl.yelpcdn.com/bphoto/k7iZUPs2AiE8HG1dNwe-5Q/o.jpg", "is_closed": false, "url": "https://www.yelp.com/biz/knish-nosh-rego-park?adjust_creative=5eN9XJbvGrZ_EWoOYuLppw&utm_campaign=yelp_api_v3&utm_medium=api_v3_business_search&utm_source=5eN9XJbvGrZ_EWoOYuLppw", "review_count": 64, "categories": [{"alias": "kosher", "title": "Kosher"}], "rating": 4.0, "coordinates": {"latitude": 40.7319, "longitude": -73.86716}, "transactions": ["pickup", "delivery"], "price": "$$", "location": {"address1": "98-104 Queens Blvd", "address2": "", "address3": "", "city": "Rego Park", "zip_code": "11374", "country": "US", "state": "NY", "display_address": ["98-104 Queens Blvd", "Rego Park, NY 11374"]}, "phone": "+17188975554", "display_phone": "(718) 897-5554", "distance": 11049.031034733174}, {"id": "bHkJ-7cOUTI7SJrqnRpt7g", "alias": "king-solomon-glatt-kosher-catering-and-reastaurant-brooklyn", "name": "King Solomon Glatt Kosher Catering & Reastaurant", "image_url": "https://s3-media2.fl.yelpcdn.com/bphoto/SIEb1FtcySDoYnZ9gBqD3g/o.jpg", "is_closed": false, "url": "https://www.yelp.com/biz/king-solomon-glatt-kosher-catering-and-reastaurant-brooklyn?adjust_creative=5eN9XJbvGrZ_EWoOYuLppw&utm_campaign=yelp_api_v3&utm_medium=api_v3_business_search&utm_source=5eN9XJbvGrZ_EWoOYuLppw", "review_count": 24, "categories": [{"alias": "kosher", "title": "Kosher"}, {"alias": "russian", "title": "Russian"}, {"alias": "mideastern", "title": "Middle Eastern"}], "rating": 4.5, "coordinates": {"latitude": 40.613808, "longitude": -73.962715}, "transactions": ["pickup", "delivery"], "price": "$$", "location": {"address1": "1787 Coney Island Ave", "address2": null, "address3": "", "city": "Brooklyn", "zip_code": "11230", "country": "US", "state": "NY", "display_address": ["1787 Coney Island Ave", "Brooklyn, NY 11230"]}, "phone": "+17189757676", "display_phone": "(718) 975-7676", "distance": 16333.911740406364}, {"id": "A_e9adJ7v_U7trur2JMrgA", "alias": "grill-on-lee-new-york-2", "name": "Grill On Lee", "image_url": "https://s3-media3.fl.yelpcdn.com/bphoto/jSAb9BFijIHNjswJkQ_iOw/o.jpg", "is_closed": false, "url": "https://www.yelp.com/biz/grill-on-lee-new-york-2?adjust_creative=5eN9XJbvGrZ_EWoOYuLppw&utm_campaign=yelp_api_v3&utm_medium=api_v3_business_search&utm_source=5eN9XJbvGrZ_EWoOYuLppw", "review_count": 12, "categories": [{"alias": "kosher", "title": "Kosher"}, {"alias": "chinese", "title": "Chinese"}, {"alias": "delis", "title": "Delis"}], "rating": 4.0, "coordinates": {"latitude": 40.7044641162683, "longitude": -73.9587070047855}, "transactions": ["pickup", "delivery"], "price": "$$", "location": {"address1": "108 Lee Ave", "address2": null, "address3": "", "city": "New York", "zip_code": "11211", "country": "US", "state": "NY", "display_address": ["108 Lee Ave", "New York, NY 11211"]}, "phone": "+17189632700", "display_phone": "(718) 963-2700", "distance": 6419.622988814816}, {"id": "cfa699KGi9Ki-U_mCMVJvg", "alias": "caravan-of-dreams-new-york", "name": "Caravan of Dreams", "image_url": "https://s3-media1.fl.yelpcdn.com/bphoto/a7K_tMIBIRcDsz7Z-Y8Cxg/o.jpg", "is_closed": false, "url": "https://www.yelp.com/biz/caravan-of-dreams-new-york?adjust_creative=5eN9XJbvGrZ_EWoOYuLppw&utm_campaign=yelp_api_v3&utm_medium=api_v3_business_search&utm_source=5eN9XJbvGrZ_EWoOYuLppw", "review_count": 518, "categories": [{"alias": "juicebars", "title": "Juice Bars & Smoothies"}, {"alias": "vegan", "title": "Vegan"}, {"alias": "kosher", "title": "Kosher"}], "rating": 3.5, "coordinates": {"latitude": 40.7261704450824, "longitude": -73.9856490472387}, "transactions": ["pickup", "delivery"], "price": "$$", "location": {"address1": "405 E 6th St", "address2": null, "address3": null, "city": "New York", "zip_code": "10009", "country": "US", "state": "NY", "display_address": ["405 E 6th St", "New York, NY 10009"]}, "phone": "+12122541613", "display_phone": "(212) 254-1613", "distance": 3833.1741651266416}, {"id": "fahnqhxhFqyMAHKVC01sSA", "alias": "moishes-place-brooklyn", "name": "Moishe's Place", "image_url": "https://s3-media2.fl.yelpcdn.com/bphoto/GlLFn67NFSMxWYzUjnqp4w/o.jpg", "is_closed": false, "url": "https://www.yelp.com/biz/moishes-place-brooklyn?adjust_creative=5eN9XJbvGrZ_EWoOYuLppw&utm_campaign=yelp_api_v3&utm_medium=api_v3_business_search&utm_source=5eN9XJbvGrZ_EWoOYuLppw", "review_count": 14, "categories": [{"alias": "kosher", "title": "Kosher"}, {"alias": "chinese", "title": "Chinese"}, {"alias": "tradamerican", "title": "American (Traditional)"}], "rating": 3.5, "coordinates": {"latitude": 40.6952229685817, "longitude": -73.9563989639282}, "transactions": ["pickup"], "price": "$$", "location": {"address1": "868 Bedford Ave", "address2": "", "address3": "", "city": "Brooklyn", "zip_code": "11205", "country": "US", "state": "NY", "display_address": ["868 Bedford Ave", "Brooklyn, NY 11205"]}, "phone": "+17184514700", "display_phone": "(718) 451-4700", "distance": 7462.883508120059}, {"id": "e_pbcF-lIHXvBiQwsKnkrg", "alias": "orchidea-brooklyn", "name": "Orchidea", "image_url": "https://s3-media2.fl.yelpcdn.com/bphoto/RTs0p0Wt8iqadavLgJ_BYw/o.jpg", "is_closed": false, "url": "https://www.yelp.com/biz/orchidea-brooklyn?adjust_creative=5eN9XJbvGrZ_EWoOYuLppw&utm_campaign=yelp_api_v3&utm_medium=api_v3_business_search&utm_source=5eN9XJbvGrZ_EWoOYuLppw", "review_count": 47, "categories": [{"alias": "kosher", "title": "Kosher"}, {"alias": "newamerican", "title": "American (New)"}], "rating": 4.0, "coordinates": {"latitude": 40.6366155, "longitude": -73.993802}, "transactions": ["pickup", "delivery"], "price": "$$$", "location": {"address1": "4815 12th Ave", "address2": "", "address3": "", "city": "Brooklyn", "zip_code": "11219", "country": "US", "state": "NY", "display_address": ["4815 12th Ave", "Brooklyn, NY 11219"]}, "phone": "+17186867500", "display_phone": "(718) 686-7500", "distance": 13801.39379985955}, {"id": "shX1ubilpDb27DJtiE4LOQ", "alias": "vstrecha-new-york", "name": "Vstrecha", "image_url": "", "is_closed": false, "url": "https://www.yelp.com/biz/vstrecha-new-york?adjust_creative=5eN9XJbvGrZ_EWoOYuLppw&utm_campaign=yelp_api_v3&utm_medium=api_v3_business_search&utm_source=5eN9XJbvGrZ_EWoOYuLppw", "review_count": 3, "categories": [{"alias": "russian", "title": "Russian"}], "rating": 3.5, "coordinates": {"latitude": 40.605454, "longitude": -73.9973507}, "transactions": [], "location": {"address1": "8421 20th Ave", "address2": "", "address3": "", "city": "New York", "zip_code": "11214", "country": "US", "state": "NY", "display_address": ["8421 20th Ave", "New York, NY 11214"]}, "phone": "+17182664817", "display_phone": "(718) 266-4817", "distance": 17281.86166250555}, {"id": "AdZ13ZEVD7t2h8PaEIbTbQ", "alias": "alenbi-brooklyn", "name": "ALENbi", "image_url": "https://s3-media2.fl.yelpcdn.com/bphoto/OKsID8ZNYFyxH2WLKrSMmg/o.jpg", "is_closed": false, "url": "https://www.yelp.com/biz/alenbi-brooklyn?adjust_creative=5eN9XJbvGrZ_EWoOYuLppw&utm_campaign=yelp_api_v3&utm_medium=api_v3_business_search&utm_source=5eN9XJbvGrZ_EWoOYuLppw", "review_count": 57, "categories": [{"alias": "mideastern", "title": "Middle Eastern"}, {"alias": "kosher", "title": "Kosher"}], "rating": 3.5, "coordinates": {"latitude": 40.666413, "longitude": -73.9506115}, "transactions": [], "price": "$$$$", "location": {"address1": "887 Nostrand Ave", "address2": "", "address3": null, "city": "Brooklyn", "zip_code": "11225", "country": "US", "state": "NY", "display_address": ["887 Nostrand Ave", "Brooklyn, NY 11225"]}, "phone": "+13475293739", "display_phone": "(347) 529-3739", "distance": 10685.415122028196}, {"id": "3cPE2B0xt0U7GdOZn9luLw", "alias": "mocha-burger-new-york-5", "name": "Mocha Burger", "image_url": "https://s3-media3.fl.yelpcdn.com/bphoto/rZkLaK5VkBWmqO9Y40VTOw/o.jpg", "is_closed": false, "url": "https://www.yelp.com/biz/mocha-burger-new-york-5?adjust_creative=5eN9XJbvGrZ_EWoOYuLppw&utm_campaign=yelp_api_v3&utm_medium=api_v3_business_search&utm_source=5eN9XJbvGrZ_EWoOYuLppw", "review_count": 180, "categories": [{"alias": "kosher", "title": "Kosher"}, {"alias": "burgers", "title": "Burgers"}], "rating": 3.5, "coordinates": {"latitude": 40.72747, "longitude": -73.999778}, "transactions": ["pickup", "delivery"], "price": "$$", "location": {"address1": "496 Laguardia Pl", "address2": "", "address3": "Street Level", "city": "New York", "zip_code": "10012", "country": "US", "state": "NY", "display_address": ["496 Laguardia Pl", "Street Level", "New York, NY 10012"]}, "phone": "+12129823800", "display_phone": "(212) 982-3800", "distance": 4053.59381307632}, {"id": "U7aH5Sy4Z5QfEpzeccz56w", "alias": "pahal-zan-forest-hills", "name": "Pahal Zan", "image_url": "https://s3-media3.fl.yelpcdn.com/bphoto/S0gZl7w93kXfCAL7K2XQdA/o.jpg", "is_closed": false, "url": "https://www.yelp.com/biz/pahal-zan-forest-hills?adjust_creative=5eN9XJbvGrZ_EWoOYuLppw&utm_campaign=yelp_api_v3&utm_medium=api_v3_business_search&utm_source=5eN9XJbvGrZ_EWoOYuLppw", "review_count": 276, "categories": [{"alias": "mideastern", "title": "Middle Eastern"}, {"alias": "falafel", "title": "Falafel"}, {"alias": "kosher", "title": "Kosher"}], "rating": 4.5, "coordinates": {"latitude": 40.7197288162693, "longitude": -73.8449875895475}, "transactions": ["pickup", "delivery"], "price": "$$", "location": {"address1": "106-12 71st Ave", "address2": "", "address3": "", "city": "Forest Hills", "zip_code": "11375", "country": "US", "state": "NY", "display_address": ["106-12 71st Ave", "Forest Hills, NY 11375"]}, "phone": "+17187937177", "display_phone": "(718) 793-7177", "distance": 12115.865116863319}, {"id": "uhpDCZr199sJE1758HYi6Q", "alias": "foster-village-kosher-deli-bergenfield", "name": "Foster Village Kosher Deli", "image_url": "https://s3-media2.fl.yelpcdn.com/bphoto/YYi-oWtLrA0ZjqT9X7hTdg/o.jpg", "is_closed": false, "url": "https://www.yelp.com/biz/foster-village-kosher-deli-bergenfield?adjust_creative=5eN9XJbvGrZ_EWoOYuLppw&utm_campaign=yelp_api_v3&utm_medium=api_v3_business_search&utm_source=5eN9XJbvGrZ_EWoOYuLppw", "review_count": 41, "categories": [{"alias": "delis", "title": "Delis"}, {"alias": "kosher", "title": "Kosher"}], "rating": 4.5, "coordinates": {"latitude": 40.9131363, "longitude": -73.99743}, "transactions": ["pickup", "delivery"], "price": "$$", "location": {"address1": "469 S Washington Ave", "address2": "", "address3": "", "city": "Bergenfield", "zip_code": "07621", "country": "US", "state": "NJ", "display_address": ["469 S Washington Ave", "Bergenfield, NJ 07621"]}, "phone": "+12013847100", "display_phone": "(201) 384-7100", "distance": 17086.945704733178}, {"id": "drSTxKhhBAeZWQXkpnCAHQ", "alias": "chorsu-restaurant-brooklyn", "name": "Chorsu Restaurant", "image_url": "", "is_closed": false, "url": "https://www.yelp.com/biz/chorsu-restaurant-brooklyn?adjust_creative=5eN9XJbvGrZ_EWoOYuLppw&utm_campaign=yelp_api_v3&utm_medium=api_v3_business_search&utm_source=5eN9XJbvGrZ_EWoOYuLppw", "review_count": 6, "categories": [{"alias": "uzbek", "title": "Uzbek"}, {"alias": "turkish", "title": "Turkish"}, {"alias": "mediterranean", "title": "Mediterranean"}], "rating": 3.5, "coordinates": {"latitude": 40.6045074462891, "longitude": -73.9727783203125}, "transactions": ["pickup", "delivery"], "price": "$$", "location": {"address1": "461 Kings Hwy", "address2": "", "address3": "", "city": "Brooklyn", "zip_code": "11223", "country": "US", "state": "NY", "display_address": ["461 Kings Hwy", "Brooklyn, NY 11223"]}, "phone": "+17183362431", "display_phone": "(718) 336-2431", "distance": 17320.284808132677}, {"id": "kqCCPJllmpcHPaIhIHE-Iw", "alias": "the-humble-toast-teaneck", "name": "The Humble Toast", "image_url": "https://s3-media4.fl.yelpcdn.com/bphoto/d8kUrNJV94THRs3HQwDjwQ/o.jpg", "is_closed": false, "url": "https://www.yelp.com/biz/the-humble-toast-teaneck?adjust_creative=5eN9XJbvGrZ_EWoOYuLppw&utm_campaign=yelp_api_v3&utm_medium=api_v3_business_search&utm_source=5eN9XJbvGrZ_EWoOYuLppw", "review_count": 34, "categories": [{"alias": "sandwiches", "title": "Sandwiches"}, {"alias": "kosher", "title": "Kosher"}], "rating": 4.5, "coordinates": {"latitude": 40.9010207, "longitude": -74.0052302}, "transactions": ["pickup", "delivery"], "price": "$$", "location": {"address1": "1383 Queen Anne Rd", "address2": null, "address3": "", "city": "Teaneck", "zip_code": "07666", "country": "US", "state": "NJ", "display_address": ["1383 Queen Anne Rd", "Teaneck, NJ 07666"]}, "phone": "+12018973080", "display_phone": "(201) 897-3080", "distance": 15814.063424552141}, {"id": "Z2sDMSlqtPGjzXye0Y_Crw", "alias": "the-canteen-midwood", "name": "The Canteen", "image_url": "https://s3-media1.fl.yelpcdn.com/bphoto/mm_-Y4U5i4hJRiQHZ68_nQ/o.jpg", "is_closed": false, "url": "https://www.yelp.com/biz/the-canteen-midwood?adjust_creative=5eN9XJbvGrZ_EWoOYuLppw&utm_campaign=yelp_api_v3&utm_medium=api_v3_business_search&utm_source=5eN9XJbvGrZ_EWoOYuLppw", "review_count": 14, "categories": [{"alias": "kosher", "title": "Kosher"}, {"alias": "hotdogs", "title": "Fast Food"}], "rating": 3.5, "coordinates": {"latitude": 40.6253187616457, "longitude": -73.9468013495207}, "transactions": ["pickup", "delivery"], "price": "$$", "location": {"address1": "2436 Nostrand Ave", "address2": "", "address3": "", "city": "Midwood", "zip_code": "11210", "country": "US", "state": "NY", "display_address": ["2436 Nostrand Ave", "Midwood, NY 11210"]}, "phone": "+13477028988", "display_phone": "(347) 702-8988", "distance": 15235.975926087367}, {"id": "IvcoTrvUdlhtpp2_pn_rAA", "alias": "omonia-cafe-brooklyn-3", "name": "Omonia Cafe", "image_url": "https://s3-media1.fl.yelpcdn.com/bphoto/soV4UjspvBv7RCTEU3zW9Q/o.jpg", "is_closed": false, "url": "https://www.yelp.com/biz/omonia-cafe-brooklyn-3?adjust_creative=5eN9XJbvGrZ_EWoOYuLppw&utm_campaign=yelp_api_v3&utm_medium=api_v3_business_search&utm_source=5eN9XJbvGrZ_EWoOYuLppw", "review_count": 338, "categories": [{"alias": "bakeries", "title": "Bakeries"}, {"alias": "bars", "title": "Bars"}, {"alias": "modern_european", "title": "Modern European"}], "rating": 3.0, "coordinates": {"latitude": 40.63045, "longitude": -74.0284999}, "transactions": ["pickup", "delivery"], "price": "$$", "location": {"address1": "7612 3rd Ave", "address2": "", "address3": "", "city": "Brooklyn", "zip_code": "11209", "country": "US", "state": "NY", "display_address": ["7612 3rd Ave", "Brooklyn, NY 11209"]}, "phone": "+17184911435", "display_phone": "(718) 491-1435", "distance": 15031.790812170855}, {"id": "yWvArw42GlQxLdkPYzO6Hw", "alias": "aarons-kosher-gourmet-emporium-and-prime-meats-rego-park", "name": "Aaron's Kosher Gourmet Emporium & Prime Meats", "image_url": "https://s3-media2.fl.yelpcdn.com/bphoto/ka2Q3ljlazwEyZp6cMzZKQ/o.jpg", "is_closed": false, "url": "https://www.yelp.com/biz/aarons-kosher-gourmet-emporium-and-prime-meats-rego-park?adjust_creative=5eN9XJbvGrZ_EWoOYuLppw&utm_campaign=yelp_api_v3&utm_medium=api_v3_business_search&utm_source=5eN9XJbvGrZ_EWoOYuLppw", "review_count": 26, "categories": [{"alias": "meats", "title": "Meat Shops"}, {"alias": "kosher", "title": "Kosher"}, {"alias": "catering", "title": "Caterers"}], "rating": 4.0, "coordinates": {"latitude": 40.72402, "longitude": -73.86948}, "transactions": [], "price": "$$", "location": {"address1": "63-06 Woodhaven Blvd", "address2": "", "address3": "", "city": "Rego Park", "zip_code": "11374", "country": "US", "state": "NY", "display_address": ["63-06 Woodhaven Blvd", "Rego Park, NY 11374"]}, "phone": "+17182051992", "display_phone": "(718) 205-1992", "distance": 10028.077786126474}, {"id": "_jWlpHWNMii9l5L-cwm_tQ", "alias": "u-yuri-fergana-restauraunt-rego-park", "name": "U Yuri Fergana Restauraunt", "image_url": "https://s3-media2.fl.yelpcdn.com/bphoto/-iNxsnaCflk6k5rfuwqSaw/o.jpg", "is_closed": false, "url": "https://www.yelp.com/biz/u-yuri-fergana-restauraunt-rego-park?adjust_creative=5eN9XJbvGrZ_EWoOYuLppw&utm_campaign=yelp_api_v3&utm_medium=api_v3_business_search&utm_source=5eN9XJbvGrZ_EWoOYuLppw", "review_count": 21, "categories": [{"alias": "kosher", "title": "Kosher"}], "rating": 2.5, "coordinates": {"latitude": 40.7288711, "longitude": -73.8633114}, "transactions": [], "price": "$$", "location": {"address1": "94-09 63rd Dr", "address2": "", "address3": "", "city": "Rego Park", "zip_code": "11374", "country": "US", "state": "NY", "display_address": ["94-09 63rd Dr", "Rego Park, NY 11374"]}, "phone": "+17188306363", "display_phone": "(718) 830-6363", "distance": 10313.166529277478}, {"id": "wdUhcYckv1FPVCq2-MgUjg", "alias": "baguette-express-brooklyn", "name": "Baguette Express", "image_url": "https://s3-media1.fl.yelpcdn.com/bphoto/2QOHIZP7caQLve5Gj_a32Q/o.jpg", "is_closed": false, "url": "https://www.yelp.com/biz/baguette-express-brooklyn?adjust_creative=5eN9XJbvGrZ_EWoOYuLppw&utm_campaign=yelp_api_v3&utm_medium=api_v3_business_search&utm_source=5eN9XJbvGrZ_EWoOYuLppw", "review_count": 13, "categories": [{"alias": "hotdogs", "title": "Fast Food"}, {"alias": "kosher", "title": "Kosher"}, {"alias": "sandwiches", "title": "Sandwiches"}], "rating": 4.5, "coordinates": {"latitude": 40.62477, "longitude": -73.96213}, "transactions": ["pickup"], "price": "$$", "location": {"address1": "1013 E 14th St", "address2": "", "address3": "", "city": "Brooklyn", "zip_code": "11230", "country": "US", "state": "NY", "display_address": ["1013 E 14th St", "Brooklyn, NY 11230"]}, "phone": "+17188727222", "display_phone": "(718) 872-7222", "distance": 15121.819751311748}, {"id": "B5526eNbfzBqI9D3KpMoHw", "alias": "davry-kosher-sports-bar-brooklyn", "name": "Davry Kosher Sports Bar", "image_url": "https://s3-media1.fl.yelpcdn.com/bphoto/y2eapMEf-xe3QPM0TwLx-w/o.jpg", "is_closed": false, "url": "https://www.yelp.com/biz/davry-kosher-sports-bar-brooklyn?adjust_creative=5eN9XJbvGrZ_EWoOYuLppw&utm_campaign=yelp_api_v3&utm_medium=api_v3_business_search&utm_source=5eN9XJbvGrZ_EWoOYuLppw", "review_count": 39, "categories": [{"alias": "sportsbars", "title": "Sports Bars"}, {"alias": "kosher", "title": "Kosher"}], "rating": 4.0, "coordinates": {"latitude": 40.60612, "longitude": -73.964895}, "transactions": ["pickup", "delivery"], "price": "$$", "location": {"address1": "722 Kings Hwy", "address2": null, "address3": "", "city": "Brooklyn", "zip_code": "11223", "country": "US", "state": "NY", "display_address": ["722 Kings Hwy", "Brooklyn, NY 11223"]}, "phone": "+17185134742", "display_phone": "(718) 513-4742", "distance": 17167.3788118291}, {"id": "iy1AZhDzBejmG8Uydo7SoA", "alias": "taj-kebab-brooklyn-2", "name": "Taj Kebab", "image_url": "https://s3-media4.fl.yelpcdn.com/bphoto/TEgBpC2DstTeDX4G1W_VDQ/o.jpg", "is_closed": false, "url": "https://www.yelp.com/biz/taj-kebab-brooklyn-2?adjust_creative=5eN9XJbvGrZ_EWoOYuLppw&utm_campaign=yelp_api_v3&utm_medium=api_v3_business_search&utm_source=5eN9XJbvGrZ_EWoOYuLppw", "review_count": 14, "categories": [{"alias": "mediterranean", "title": "Mediterranean"}, {"alias": "uzbek", "title": "Uzbek"}, {"alias": "kebab", "title": "Kebab"}], "rating": 3.0, "coordinates": {"latitude": 40.6357977915453, "longitude": -73.9744790794079}, "transactions": ["pickup", "delivery"], "price": "$$$", "location": {"address1": "414 Ditmas Ave", "address2": "", "address3": null, "city": "Brooklyn", "zip_code": "11218", "country": "US", "state": "NY", "display_address": ["414 Ditmas Ave", "Brooklyn, NY 11218"]}, "phone": "+17186333006", "display_phone": "(718) 633-3006", "distance": 13838.69005784158}, {"id": "UaD0D3U-SyKBxLLREPzzZg", "alias": "hapisgah-flushing", "name": "Hapisgah", "image_url": "https://s3-media2.fl.yelpcdn.com/bphoto/juICbQSOxsdlOc25jklQng/o.jpg", "is_closed": false, "url": "https://www.yelp.com/biz/hapisgah-flushing?adjust_creative=5eN9XJbvGrZ_EWoOYuLppw&utm_campaign=yelp_api_v3&utm_medium=api_v3_business_search&utm_source=5eN9XJbvGrZ_EWoOYuLppw", "review_count": 115, "categories": [{"alias": "kosher", "title": "Kosher"}, {"alias": "steak", "title": "Steakhouses"}], "rating": 3.5, "coordinates": {"latitude": 40.7187080383301, "longitude": -73.8145370483398}, "transactions": [], "price": "$$$", "location": {"address1": "14725 Union Tpke", "address2": "", "address3": "", "city": "Flushing", "zip_code": "11367", "country": "US", "state": "NY", "display_address": ["14725 Union Tpke", "Flushing, NY 11367"]}, "phone": "+17183804449", "display_phone": "(718) 380-4449", "distance": 14562.093094322943}, {"id": "cO7x8sT6qq9TkVeqU3VXSw", "alias": "morschers-pork-store-ridgewood", "name": "Morscher's Pork Store", "image_url": "https://s3-media3.fl.yelpcdn.com/bphoto/K4tU2OBLB-GdDR8LUg46jg/o.jpg", "is_closed": false, "url": "https://www.yelp.com/biz/morschers-pork-store-ridgewood?adjust_creative=5eN9XJbvGrZ_EWoOYuLppw&utm_campaign=yelp_api_v3&utm_medium=api_v3_business_search&utm_source=5eN9XJbvGrZ_EWoOYuLppw", "review_count": 42, "categories": [{"alias": "meats", "title": "Meat Shops"}, {"alias": "butcher", "title": "Butcher"}, {"alias": "german", "title": "German"}], "rating": 4.5, "coordinates": {"latitude": 40.7020797729492, "longitude": -73.9014205932617}, "transactions": [], "price": "$$", "location": {"address1": "5844 Catalpa Ave", "address2": "", "address3": "", "city": "Ridgewood", "zip_code": "11385", "country": "US", "state": "NY", "display_address": ["5844 Catalpa Ave", "Ridgewood, NY 11385"]}, "phone": "+17188211040", "display_phone": "(718) 821-1040", "distance": 9155.574084514497}, {"id": "S4SzD0dzdzNO7FW8JM0dkQ", "alias": "mezze-kosher-restaurant-and-pizzeria-queens-rego-park", "name": "MEZZE Kosher Restaurant & Pizzeria Queens", "image_url": "https://s3-media3.fl.yelpcdn.com/bphoto/-2Z_zAhDwsIY4-EsgB2Tag/o.jpg", "is_closed": false, "url": "https://www.yelp.com/biz/mezze-kosher-restaurant-and-pizzeria-queens-rego-park?adjust_creative=5eN9XJbvGrZ_EWoOYuLppw&utm_campaign=yelp_api_v3&utm_medium=api_v3_business_search&utm_source=5eN9XJbvGrZ_EWoOYuLppw", "review_count": 70, "categories": [{"alias": "mediterranean", "title": "Mediterranean"}, {"alias": "pizza", "title": "Pizza"}, {"alias": "kosher", "title": "Kosher"}], "rating": 4.5, "coordinates": {"latitude": 40.7265825, "longitude": -73.8536276}, "transactions": ["pickup", "delivery"], "location": {"address1": "100-18 Queens Blvd", "address2": null, "address3": "", "city": "Rego Park", "zip_code": "11375", "country": "US", "state": "NY", "display_address": ["100-18 Queens Blvd", "Rego Park, NY 11375"]}, "phone": "+17188969996", "display_phone": "(718) 896-9996", "distance": 11178.762524512274}, {"id": "Th7AUBr-jcPFvw5xI2q6IA", "alias": "bens-kosher-delicatessen-restaurant-and-caterers-bayside-2", "name": "Ben's Kosher Delicatessen Restaurant & Caterers", "image_url": "https://s3-media2.fl.yelpcdn.com/bphoto/i0LQ476dcJo-Q4-_VkZzeA/o.jpg", "is_closed": false, "url": "https://www.yelp.com/biz/bens-kosher-delicatessen-restaurant-and-caterers-bayside-2?adjust_creative=5eN9XJbvGrZ_EWoOYuLppw&utm_campaign=yelp_api_v3&utm_medium=api_v3_business_search&utm_source=5eN9XJbvGrZ_EWoOYuLppw", "review_count": 174, "categories": [{"alias": "delis", "title": "Delis"}, {"alias": "kosher", "title": "Kosher"}], "rating": 3.0, "coordinates": {"latitude": 40.7787507982634, "longitude": -73.7784584504757}, "transactions": [], "price": "$$", "location": {"address1": "211-37 26th Ave", "address2": "", "address3": "", "city": "Bayside", "zip_code": "11360", "country": "US", "state": "NY", "display_address": ["211-37 26th Ave", "Bayside, NY 11360"]}, "phone": "+17182292367", "display_phone": "(718) 229-2367", "distance": 16971.664506965204}, {"id": "eob2iJPiR7-r2w4he0Tuig", "alias": "mill-basin-kosher-deli-brooklyn-3", "name": "Mill Basin Kosher Deli", "image_url": "https://s3-media3.fl.yelpcdn.com/bphoto/M5_Gw76AZzgjGMpZB1gTKA/o.jpg", "is_closed": false, "url": "https://www.yelp.com/biz/mill-basin-kosher-deli-brooklyn-3?adjust_creative=5eN9XJbvGrZ_EWoOYuLppw&utm_campaign=yelp_api_v3&utm_medium=api_v3_business_search&utm_source=5eN9XJbvGrZ_EWoOYuLppw", "review_count": 214, "categories": [{"alias": "delis", "title": "Delis"}, {"alias": "kosher", "title": "Kosher"}], "rating": 3.5, "coordinates": {"latitude": 40.61567, "longitude": -73.91812}, "transactions": ["pickup", "delivery"], "price": "$$", "location": {"address1": "5823 Ave T", "address2": "", "address3": "", "city": "Brooklyn", "zip_code": "11234", "country": "US", "state": "NY", "display_address": ["5823 Ave T", "Brooklyn, NY 11234"]}, "phone": "+17182414910", "display_phone": "(718) 241-4910", "distance": 16852.481207755867}, {"id": "YYUvrFhpG22sbP7RFRaxvQ", "alias": "grill-point-flushing", "name": "Grill Point", "image_url": "https://s3-media3.fl.yelpcdn.com/bphoto/ttWv6dsKO1sA3mJOrlo3XQ/o.jpg", "is_closed": false, "url": "https://www.yelp.com/biz/grill-point-flushing?adjust_creative=5eN9XJbvGrZ_EWoOYuLppw&utm_campaign=yelp_api_v3&utm_medium=api_v3_business_search&utm_source=5eN9XJbvGrZ_EWoOYuLppw", "review_count": 199, "categories": [{"alias": "mideastern", "title": "Middle Eastern"}, {"alias": "kosher", "title": "Kosher"}, {"alias": "mediterranean", "title": "Mediterranean"}], "rating": 4.0, "coordinates": {"latitude": 40.7297819256055, "longitude": -73.8236096230523}, "transactions": ["pickup", "delivery"], "price": "$$", "location": {"address1": "69-54 Main St", "address2": "", "address3": "", "city": "Flushing", "zip_code": "11367", "country": "US", "state": "NY", "display_address": ["69-54 Main St", "Flushing, NY 11367"]}, "phone": "+17182617077", "display_phone": "(718) 261-7077", "distance": 13480.21470185967}, {"id": "rbpp19Nen59YLXOgeAjVUg", "alias": "the-hot-spot-bbq-and-grill-fresh-meadows", "name": "The Hot Spot BBQ & Grill", "image_url": "https://s3-media1.fl.yelpcdn.com/bphoto/yUPtnbR7K_KiMhBgtA7xdQ/o.jpg", "is_closed": false, "url": "https://www.yelp.com/biz/the-hot-spot-bbq-and-grill-fresh-meadows?adjust_creative=5eN9XJbvGrZ_EWoOYuLppw&utm_campaign=yelp_api_v3&utm_medium=api_v3_business_search&utm_source=5eN9XJbvGrZ_EWoOYuLppw", "review_count": 42, "categories": [{"alias": "sandwiches", "title": "Sandwiches"}, {"alias": "kosher", "title": "Kosher"}, {"alias": "burgers", "title": "Burgers"}], "rating": 4.0, "coordinates": {"latitude": 40.726479, "longitude": -73.7888876}, "transactions": ["pickup", "delivery"], "price": "$$", "location": {"address1": "179-08 Union Tpke", "address2": null, "address3": null, "city": "Fresh Meadows", "zip_code": "11366", "country": "US", "state": "NY", "display_address": ["179-08 Union Tpke", "Fresh Meadows, NY 11366"]}, "phone": "+17189692200", "display_phone": "(718) 969-2200", "distance": 16422.01978680047}, {"id": "nCZLPoVv1zvuck8ipl8PvQ", "alias": "schnitzi-brooklyn", "name": "Schnitzi", "image_url": "https://s3-media2.fl.yelpcdn.com/bphoto/ODZB7k0wmpQKnwafmORaEQ/o.jpg", "is_closed": false, "url": "https://www.yelp.com/biz/schnitzi-brooklyn?adjust_creative=5eN9XJbvGrZ_EWoOYuLppw&utm_campaign=yelp_api_v3&utm_medium=api_v3_business_search&utm_source=5eN9XJbvGrZ_EWoOYuLppw", "review_count": 44, "categories": [{"alias": "kosher", "title": "Kosher"}], "rating": 3.5, "coordinates": {"latitude": 40.62596, "longitude": -73.9652}, "transactions": ["pickup", "delivery"], "price": "$$", "location": {"address1": "1299 Coney Island Ave", "address2": "", "address3": "", "city": "Brooklyn", "zip_code": "11230", "country": "US", "state": "NY", "display_address": ["1299 Coney Island Ave", "Brooklyn, NY 11230"]}, "phone": "+17183384015", "display_phone": "(718) 338-4015", "distance": 14971.115856401842}, {"id": "4hIHT1CCSLf7AGHQTbcP5g", "alias": "munchplace-forest-hills-3", "name": "MunchPlace", "image_url": "https://s3-media4.fl.yelpcdn.com/bphoto/iV7B3YHDE2LtIWgZISnd2Q/o.jpg", "is_closed": false, "url": "https://www.yelp.com/biz/munchplace-forest-hills-3?adjust_creative=5eN9XJbvGrZ_EWoOYuLppw&utm_campaign=yelp_api_v3&utm_medium=api_v3_business_search&utm_source=5eN9XJbvGrZ_EWoOYuLppw", "review_count": 61, "categories": [{"alias": "kosher", "title": "Kosher"}, {"alias": "tradamerican", "title": "American (Traditional)"}], "rating": 3.5, "coordinates": {"latitude": 40.7318459, "longitude": -73.8511505}, "transactions": ["pickup", "delivery"], "price": "$$", "location": {"address1": "105-25 64th Rd", "address2": null, "address3": "", "city": "Forest Hills", "zip_code": "11375", "country": "US", "state": "NY", "display_address": ["105-25 64th Rd", "Forest Hills, NY 11375"]}, "phone": "+17182752998", "display_phone": "(718) 275-2998", "distance": 11220.248406500059}, {"id": "xmk2T8DP7U3g17Yo0wSR0w", "alias": "falafel-off-the-korner-brooklyn-3", "name": "Falafel Off The Korner", "image_url": "https://s3-media2.fl.yelpcdn.com/bphoto/J8tV-NYR17ihnoqmVYLN8g/o.jpg", "is_closed": false, "url": "https://www.yelp.com/biz/falafel-off-the-korner-brooklyn-3?adjust_creative=5eN9XJbvGrZ_EWoOYuLppw&utm_campaign=yelp_api_v3&utm_medium=api_v3_business_search&utm_source=5eN9XJbvGrZ_EWoOYuLppw", "review_count": 93, "categories": [{"alias": "falafel", "title": "Falafel"}, {"alias": "mideastern", "title": "Middle Eastern"}, {"alias": "kosher", "title": "Kosher"}], "rating": 3.5, "coordinates": {"latitude": 40.6087, "longitude": -73.97174}, "transactions": ["pickup", "delivery"], "price": "$$", "location": {"address1": "1675 E 2nd St", "address2": "", "address3": "", "city": "Brooklyn", "zip_code": "11223", "country": "US", "state": "NY", "display_address": ["1675 E 2nd St", "Brooklyn, NY 11223"]}, "phone": "+17186274122", "display_phone": "(718) 627-4122", "distance": 16864.487819414313}, {"id": "x3WjQRDbbyqaWZ4ABgUX5Q", "alias": "essen-ny-deli-brooklyn", "name": "Essen NY Deli", "image_url": "https://s3-media4.fl.yelpcdn.com/bphoto/Y4RvBYnutblqK__My4wmow/o.jpg", "is_closed": false, "url": "https://www.yelp.com/biz/essen-ny-deli-brooklyn?adjust_creative=5eN9XJbvGrZ_EWoOYuLppw&utm_campaign=yelp_api_v3&utm_medium=api_v3_business_search&utm_source=5eN9XJbvGrZ_EWoOYuLppw", "review_count": 72, "categories": [{"alias": "delis", "title": "Delis"}, {"alias": "kosher", "title": "Kosher"}], "rating": 4.0, "coordinates": {"latitude": 40.6244, "longitude": -73.96474}, "transactions": [], "price": "$$", "location": {"address1": "1359 Coney Island Ave", "address2": null, "address3": null, "city": "Brooklyn", "zip_code": "11230", "country": "US", "state": "NY", "display_address": ["1359 Coney Island Ave", "Brooklyn, NY 11230"]}, "phone": "+17188591002", "display_phone": "(718) 859-1002", "distance": 15147.933437589576}, {"id": "rAmof5MaQHV7yRz35u08Jg", "alias": "kingston-pizza-kosher-brooklyn", "name": "Kingston Pizza Kosher", "image_url": "https://s3-media3.fl.yelpcdn.com/bphoto/JeXxGzTolB64Rph79p0g-A/o.jpg", "is_closed": false, "url": "https://www.yelp.com/biz/kingston-pizza-kosher-brooklyn?adjust_creative=5eN9XJbvGrZ_EWoOYuLppw&utm_campaign=yelp_api_v3&utm_medium=api_v3_business_search&utm_source=5eN9XJbvGrZ_EWoOYuLppw", "review_count": 21, "categories": [{"alias": "pizza", "title": "Pizza"}, {"alias": "kosher", "title": "Kosher"}], "rating": 2.5, "coordinates": {"latitude": 40.6654399, "longitude": -73.94242}, "transactions": [], "price": "$", "location": {"address1": "395 Kingston Ave", "address2": "", "address3": "", "city": "Brooklyn", "zip_code": "11225", "country": "US", "state": "NY", "display_address": ["395 Kingston Ave", "Brooklyn, NY 11225"]}, "phone": "+17187737154", "display_phone": "(718) 773-7154", "distance": 10969.394777095884}, {"id": "tTPXGBeMuS_YakEx4h8enQ", "alias": "bennys-brick-oven-brooklyn", "name": "Benny's brick oven", "image_url": "https://s3-media1.fl.yelpcdn.com/bphoto/s3_TkfQs76AS00cebrxlJA/o.jpg", "is_closed": false, "url": "https://www.yelp.com/biz/bennys-brick-oven-brooklyn?adjust_creative=5eN9XJbvGrZ_EWoOYuLppw&utm_campaign=yelp_api_v3&utm_medium=api_v3_business_search&utm_source=5eN9XJbvGrZ_EWoOYuLppw", "review_count": 74, "categories": [{"alias": "kosher", "title": "Kosher"}, {"alias": "pizza", "title": "Pizza"}], "rating": 3.5, "coordinates": {"latitude": 40.61818, "longitude": -73.95693}, "transactions": ["pickup", "delivery"], "price": "$$", "location": {"address1": "1802 Ave M", "address2": "", "address3": "", "city": "Brooklyn", "zip_code": "11230", "country": "US", "state": "NY", "display_address": ["1802 Ave M", "Brooklyn, NY 11230"]}, "phone": "+17187870050", "display_phone": "(718) 787-0050", "distance": 15897.358095170503}, {"id": "fQEfEKYey4UENNPCiPPQqA", "alias": "sub-express-brooklyn", "name": "Sub Express", "image_url": "", "is_closed": false, "url": "https://www.yelp.com/biz/sub-express-brooklyn?adjust_creative=5eN9XJbvGrZ_EWoOYuLppw&utm_campaign=yelp_api_v3&utm_medium=api_v3_business_search&utm_source=5eN9XJbvGrZ_EWoOYuLppw", "review_count": 10, "categories": [{"alias": "chinese", "title": "Chinese"}, {"alias": "mexican", "title": "Mexican"}, {"alias": "kosher", "title": "Kosher"}], "rating": 3.5, "coordinates": {"latitude": 40.6330405, "longitude": -73.9939503}, "transactions": [], "price": "$$", "location": {"address1": "5219 13th Ave", "address2": "", "address3": "", "city": "Brooklyn", "zip_code": "11219", "country": "US", "state": "NY", "display_address": ["5219 13th Ave", "Brooklyn, NY 11219"]}, "phone": "+17189720010", "display_phone": "(718) 972-0010", "distance": 14220.875740580252}, {"id": "pLVuNiQlAttPBpLeuAXb5Q", "alias": "deli-52-brooklyn", "name": "Deli 52", "image_url": "https://s3-media4.fl.yelpcdn.com/bphoto/reMw-V6EomN_29Qu2bBniQ/o.jpg", "is_closed": false, "url": "https://www.yelp.com/biz/deli-52-brooklyn?adjust_creative=5eN9XJbvGrZ_EWoOYuLppw&utm_campaign=yelp_api_v3&utm_medium=api_v3_business_search&utm_source=5eN9XJbvGrZ_EWoOYuLppw", "review_count": 13, "categories": [{"alias": "salad", "title": "Salad"}, {"alias": "chicken_wings", "title": "Chicken Wings"}, {"alias": "kosher", "title": "Kosher"}], "rating": 3.5, "coordinates": {"latitude": 40.6336299, "longitude": -73.9939799}, "transactions": ["pickup", "delivery"], "price": "$$", "location": {"address1": "5120 13th Ave", "address2": "", "address3": "", "city": "Brooklyn", "zip_code": "11219", "country": "US", "state": "NY", "display_address": ["5120 13th Ave", "Brooklyn, NY 11219"]}, "phone": "+17184364830", "display_phone": "(718) 436-4830", "distance": 14139.060925868052}, {"id": "rkvQS-Tgaao0sdbgEgDjcA", "alias": "sophies-bistro-and-lounge-brooklyn", "name": "Sophie's Bistro & Lounge", "image_url": "https://s3-media4.fl.yelpcdn.com/bphoto/hx9vfra3NQbTSqe_kXLbUw/o.jpg", "is_closed": false, "url": "https://www.yelp.com/biz/sophies-bistro-and-lounge-brooklyn?adjust_creative=5eN9XJbvGrZ_EWoOYuLppw&utm_campaign=yelp_api_v3&utm_medium=api_v3_business_search&utm_source=5eN9XJbvGrZ_EWoOYuLppw", "review_count": 36, "categories": [{"alias": "kosher", "title": "Kosher"}, {"alias": "salad", "title": "Salad"}, {"alias": "sandwiches", "title": "Sandwiches"}], "rating": 2.5, "coordinates": {"latitude": 40.61095, "longitude": -73.96275}, "transactions": ["pickup", "delivery"], "price": "$$", "location": {"address1": "1904 Coney Island Ave", "address2": "", "address3": "", "city": "Brooklyn", "zip_code": "11230", "country": "US", "state": "NY", "display_address": ["1904 Coney Island Ave", "Brooklyn, NY 11230"]}, "phone": "+17184446222", "display_phone": "(718) 444-6222", "distance": 16658.251831342557}, {"id": "W_R_AwTr24xiqKvp8P9FWQ", "alias": "subsational-brooklyn-2", "name": "Subsational", "image_url": "https://s3-media4.fl.yelpcdn.com/bphoto/SFi6QmiTMRvTpjRod0Whrg/o.jpg", "is_closed": false, "url": "https://www.yelp.com/biz/subsational-brooklyn-2?adjust_creative=5eN9XJbvGrZ_EWoOYuLppw&utm_campaign=yelp_api_v3&utm_medium=api_v3_business_search&utm_source=5eN9XJbvGrZ_EWoOYuLppw", "review_count": 69, "categories": [{"alias": "sandwiches", "title": "Sandwiches"}, {"alias": "hotdogs", "title": "Fast Food"}, {"alias": "kosher", "title": "Kosher"}], "rating": 2.5, "coordinates": {"latitude": 40.63202, "longitude": -73.94852}, "transactions": ["pickup", "delivery"], "price": "$$", "location": {"address1": "2901 Campus Rd", "address2": "", "address3": "", "city": "Brooklyn", "zip_code": "11210", "country": "US", "state": "NY", "display_address": ["2901 Campus Rd", "Brooklyn, NY 11210"]}, "phone": "+17189984545", "display_phone": "(718) 998-4545", "distance": 14482.260881419217}]